%time,field.header.seq,field.header.stamp,field.header.frame_id,field.magnetic_field.x,field.magnetic_field.y,field.magnetic_field.z,field.magnetic_field_covariance0,field.magnetic_field_covariance1,field.magnetic_field_covariance2,field.magnetic_field_covariance3,field.magnetic_field_covariance4,field.magnetic_field_covariance5,field.magnetic_field_covariance6,field.magnetic_field_covariance7,field.magnetic_field_covariance8
1574069785820768405,53,1574069785820633188,base_link,111000.0,222000.0,-379000.0,-1.0,0.0,0.0,0.0,0.0,0.0,0.0,0.0,0.0
1574069786060301704,54,1574069786060073926,base_link,114000.0,217000.0,-377000.0,-1.0,0.0,0.0,0.0,0.0,0.0,0.0,0.0,0.0
1574069786297774451,55,1574069786297423343,base_link,111000.0,216000.0,-369000.0,-1.0,0.0,0.0,0.0,0.0,0.0,0.0,0.0,0.0
1574069786532848122,56,1574069786532616666,base_link,104000.0,221000.0,-373000.0,-1.0,0.0,0.0,0.0,0.0,0.0,0.0,0.0,0.0
1574069786785251422,57,1574069786784905174,base_link,122000.0,216000.0,-383000.0,-1.0,0.0,0.0,0.0,0.0,0.0,0.0,0.0,0.0
1574069787019754063,58,1574069787019552914,base_link,123000.0,218000.0,-371000.0,-1.0,0.0,0.0,0.0,0.0,0.0,0.0,0.0,0.0
1574069787260611738,59,1574069787260202320,base_link,112000.0,217000.0,-368000.0,-1.0,0.0,0.0,0.0,0.0,0.0,0.0,0.0,0.0
1574069787502769140,60,1574069787502453808,base_link,109000.0,217000.0,-370000.0,-1.0,0.0,0.0,0.0,0.0,0.0,0.0,0.0,0.0
1574069787733342222,61,1574069787732972790,base_link,113000.0,216000.0,-380000.0,-1.0,0.0,0.0,0.0,0.0,0.0,0.0,0.0,0.0
1574069787976203214,62,1574069787975992759,base_link,116000.0,217000.0,-378000.0,-1.0,0.0,0.0,0.0,0.0,0.0,0.0,0.0,0.0
1574069788226364073,63,1574069788226005957,base_link,110000.0,218000.0,-370000.0,-1.0,0.0,0.0,0.0,0.0,0.0,0.0,0.0,0.0
1574069788470585867,64,1574069788470334043,base_link,108000.0,221000.0,-372000.0,-1.0,0.0,0.0,0.0,0.0,0.0,0.0,0.0,0.0
1574069788711749140,65,1574069788711352307,base_link,112000.0,221000.0,-379000.0,-1.0,0.0,0.0,0.0,0.0,0.0,0.0,0.0,0.0
1574069788930337791,66,1574069788930133833,base_link,112000.0,218000.0,-380000.0,-1.0,0.0,0.0,0.0,0.0,0.0,0.0,0.0,0.0
1574069789181723628,67,1574069789181500083,base_link,118000.0,218000.0,-379000.0,-1.0,0.0,0.0,0.0,0.0,0.0,0.0,0.0,0.0
1574069789414387237,68,1574069789414116212,base_link,107000.0,221000.0,-369000.0,-1.0,0.0,0.0,0.0,0.0,0.0,0.0,0.0,0.0
1574069789655469142,69,1574069789655225299,base_link,109000.0,218000.0,-369000.0,-1.0,0.0,0.0,0.0,0.0,0.0,0.0,0.0,0.0
1574069789896893050,70,1574069789896563766,base_link,109000.0,222000.0,-377000.0,-1.0,0.0,0.0,0.0,0.0,0.0,0.0,0.0,0.0
1574069790136261078,71,1574069790136056075,base_link,118000.0,218000.0,-373000.0,-1.0,0.0,0.0,0.0,0.0,0.0,0.0,0.0,0.0
1574069790385455171,72,1574069790385095431,base_link,114000.0,218000.0,-368000.0,-1.0,0.0,0.0,0.0,0.0,0.0,0.0,0.0,0.0
1574069790614672254,73,1574069790614463070,base_link,106000.0,217000.0,-375000.0,-1.0,0.0,0.0,0.0,0.0,0.0,0.0,0.0,0.0
1574069790862016097,74,1574069790861781913,base_link,114000.0,217000.0,-376000.0,-1.0,0.0,0.0,0.0,0.0,0.0,0.0,0.0,0.0
1574069791105318907,75,1574069791105118414,base_link,116000.0,218000.0,-367000.0,-1.0,0.0,0.0,0.0,0.0,0.0,0.0,0.0,0.0
1574069791340517564,76,1574069791340102459,base_link,109000.0,220000.0,-372000.0,-1.0,0.0,0.0,0.0,0.0,0.0,0.0,0.0,0.0
1574069791590771657,77,1574069791590498164,base_link,107000.0,217000.0,-370000.0,-1.0,0.0,0.0,0.0,0.0,0.0,0.0,0.0,0.0
1574069791814971031,78,1574069791814570745,base_link,115000.0,218000.0,-380000.0,-1.0,0.0,0.0,0.0,0.0,0.0,0.0,0.0,0.0
1574069792055815600,79,1574069792055632475,base_link,116000.0,221000.0,-375000.0,-1.0,0.0,0.0,0.0,0.0,0.0,0.0,0.0,0.0
1574069792311370778,80,1574069792311056739,base_link,111000.0,219000.0,-371000.0,-1.0,0.0,0.0,0.0,0.0,0.0,0.0,0.0,0.0
1574069792529456106,81,1574069792529269867,base_link,109000.0,221000.0,-370000.0,-1.0,0.0,0.0,0.0,0.0,0.0,0.0,0.0,0.0
1574069792786689257,82,1574069792786325525,base_link,115000.0,217000.0,-376000.0,-1.0,0.0,0.0,0.0,0.0,0.0,0.0,0.0,0.0
1574069793019965170,83,1574069793019714999,base_link,114000.0,218000.0,-374000.0,-1.0,0.0,0.0,0.0,0.0,0.0,0.0,0.0,0.0
1574069793257896777,84,1574069793257516047,base_link,111000.0,218000.0,-375000.0,-1.0,0.0,0.0,0.0,0.0,0.0,0.0,0.0,0.0
1574069793501076397,85,1574069793500870515,base_link,105000.0,223000.0,-370000.0,-1.0,0.0,0.0,0.0,0.0,0.0,0.0,0.0,0.0
1574069793733671365,86,1574069793733288562,base_link,114000.0,220000.0,-377000.0,-1.0,0.0,0.0,0.0,0.0,0.0,0.0,0.0,0.0
1574069793932633919,87,1574069793932437391,base_link,116000.0,223000.0,-375000.0,-1.0,0.0,0.0,0.0,0.0,0.0,0.0,0.0,0.0
1574069794181371851,88,1574069794180945600,base_link,118000.0,220000.0,-374000.0,-1.0,0.0,0.0,0.0,0.0,0.0,0.0,0.0,0.0
1574069794415240740,89,1574069794414983062,base_link,114000.0,221000.0,-377000.0,-1.0,0.0,0.0,0.0,0.0,0.0,0.0,0.0,0.0
1574069794655025054,90,1574069794654796671,base_link,116000.0,220000.0,-377000.0,-1.0,0.0,0.0,0.0,0.0,0.0,0.0,0.0,0.0
1574069794891623116,91,1574069794891304096,base_link,118000.0,217000.0,-378000.0,-1.0,0.0,0.0,0.0,0.0,0.0,0.0,0.0,0.0
1574069795135984709,92,1574069795135608178,base_link,118000.0,220000.0,-381000.0,-1.0,0.0,0.0,0.0,0.0,0.0,0.0,0.0,0.0
1574069795374224822,93,1574069795373837842,base_link,114000.0,217000.0,-378000.0,-1.0,0.0,0.0,0.0,0.0,0.0,0.0,0.0,0.0
1574069795646564046,94,1574069795646162323,base_link,117000.0,218000.0,-374000.0,-1.0,0.0,0.0,0.0,0.0,0.0,0.0,0.0,0.0
1574069795847500954,95,1574069795847295210,base_link,118000.0,215000.0,-374000.0,-1.0,0.0,0.0,0.0,0.0,0.0,0.0,0.0,0.0
1574069796086951294,96,1574069796086710710,base_link,119000.0,217000.0,-372000.0,-1.0,0.0,0.0,0.0,0.0,0.0,0.0,0.0,0.0
1574069796356843907,97,1574069796356640993,base_link,124000.0,212000.0,-368000.0,-1.0,0.0,0.0,0.0,0.0,0.0,0.0,0.0,0.0
1574069796585798730,98,1574069796585384193,base_link,122000.0,217000.0,-367000.0,-1.0,0.0,0.0,0.0,0.0,0.0,0.0,0.0,0.0
1574069796813461666,99,1574069796813256148,base_link,118000.0,209000.0,-369000.0,-1.0,0.0,0.0,0.0,0.0,0.0,0.0,0.0,0.0
1574069797048284496,100,1574069797048066493,base_link,121000.0,216000.0,-372000.0,-1.0,0.0,0.0,0.0,0.0,0.0,0.0,0.0,0.0
1574069797321857310,101,1574069797321586094,base_link,120000.0,213000.0,-367000.0,-1.0,0.0,0.0,0.0,0.0,0.0,0.0,0.0,0.0
1574069797532366556,102,1574069797532209285,base_link,117000.0,215000.0,-365000.0,-1.0,0.0,0.0,0.0,0.0,0.0,0.0,0.0,0.0
1574069797770407189,103,1574069797770000514,base_link,120000.0,213000.0,-366000.0,-1.0,0.0,0.0,0.0,0.0,0.0,0.0,0.0,0.0
1574069798009726914,104,1574069798009514161,base_link,119000.0,212000.0,-371000.0,-1.0,0.0,0.0,0.0,0.0,0.0,0.0,0.0,0.0
1574069798263602947,105,1574069798263293152,base_link,126000.0,215000.0,-369000.0,-1.0,0.0,0.0,0.0,0.0,0.0,0.0,0.0,0.0
1574069798495174045,106,1574069798495029361,base_link,120000.0,211000.0,-367000.0,-1.0,0.0,0.0,0.0,0.0,0.0,0.0,0.0,0.0
1574069798730906790,107,1574069798730540735,base_link,118000.0,211000.0,-373000.0,-1.0,0.0,0.0,0.0,0.0,0.0,0.0,0.0,0.0
1574069798970548634,108,1574069798970356689,base_link,116000.0,221000.0,-375000.0,-1.0,0.0,0.0,0.0,0.0,0.0,0.0,0.0,0.0
1574069799235049238,109,1574069799234695418,base_link,125000.0,213000.0,-373000.0,-1.0,0.0,0.0,0.0,0.0,0.0,0.0,0.0,0.0
1574069799454484674,110,1574069799454300062,base_link,122000.0,211000.0,-368000.0,-1.0,0.0,0.0,0.0,0.0,0.0,0.0,0.0,0.0
1574069799700311140,111,1574069799699944510,base_link,121000.0,216000.0,-372000.0,-1.0,0.0,0.0,0.0,0.0,0.0,0.0,0.0,0.0
1574069799933050333,112,1574069799932891157,base_link,115000.0,209000.0,-372000.0,-1.0,0.0,0.0,0.0,0.0,0.0,0.0,0.0,0.0
1574069800175716206,113,1574069800175323740,base_link,119000.0,214000.0,-369000.0,-1.0,0.0,0.0,0.0,0.0,0.0,0.0,0.0,0.0
1574069800450800311,114,1574069800450556332,base_link,116000.0,216000.0,-371000.0,-1.0,0.0,0.0,0.0,0.0,0.0,0.0,0.0,0.0
1574069800648099406,115,1574069800647659779,base_link,118000.0,215000.0,-373000.0,-1.0,0.0,0.0,0.0,0.0,0.0,0.0,0.0,0.0
1574069800889566384,116,1574069800889302688,base_link,120000.0,209000.0,-374000.0,-1.0,0.0,0.0,0.0,0.0,0.0,0.0,0.0,0.0
1574069801130334954,117,1574069801129884049,base_link,123000.0,216000.0,-369000.0,-1.0,0.0,0.0,0.0,0.0,0.0,0.0,0.0,0.0
1574069801381383523,118,1574069801381108498,base_link,116000.0,212000.0,-366000.0,-1.0,0.0,0.0,0.0,0.0,0.0,0.0,0.0,0.0
1574069801631435983,119,1574069801631064837,base_link,121000.0,213000.0,-368000.0,-1.0,0.0,0.0,0.0,0.0,0.0,0.0,0.0,0.0
1574069801854321670,120,1574069801854173633,base_link,119000.0,211000.0,-364000.0,-1.0,0.0,0.0,0.0,0.0,0.0,0.0,0.0,0.0
1574069802100423796,121,1574069802100036398,base_link,123000.0,214000.0,-369000.0,-1.0,0.0,0.0,0.0,0.0,0.0,0.0,0.0,0.0
1574069802337374785,122,1574069802337190913,base_link,125000.0,213000.0,-371000.0,-1.0,0.0,0.0,0.0,0.0,0.0,0.0,0.0,0.0
1574069802620843262,123,1574069802620353261,base_link,114000.0,215000.0,-367000.0,-1.0,0.0,0.0,0.0,0.0,0.0,0.0,0.0,0.0
1574069802815391663,124,1574069802815216298,base_link,123000.0,213000.0,-374000.0,-1.0,0.0,0.0,0.0,0.0,0.0,0.0,0.0,0.0
1574069803055330072,125,1574069803054927691,base_link,125000.0,209000.0,-372000.0,-1.0,0.0,0.0,0.0,0.0,0.0,0.0,0.0,0.0
1574069803290150032,126,1574069803289864217,base_link,118000.0,212000.0,-367000.0,-1.0,0.0,0.0,0.0,0.0,0.0,0.0,0.0,0.0
1574069803531457224,127,1574069803531093054,base_link,125000.0,214000.0,-358000.0,-1.0,0.0,0.0,0.0,0.0,0.0,0.0,0.0,0.0
1574069803792156631,128,1574069803791990393,base_link,123000.0,210000.0,-364000.0,-1.0,0.0,0.0,0.0,0.0,0.0,0.0,0.0,0.0
1574069804016259896,129,1574069804015862543,base_link,120000.0,209000.0,-369000.0,-1.0,0.0,0.0,0.0,0.0,0.0,0.0,0.0,0.0
1574069804256422497,130,1574069804256210444,base_link,128000.0,210000.0,-360000.0,-1.0,0.0,0.0,0.0,0.0,0.0,0.0,0.0,0.0
1574069804487263955,131,1574069804486927464,base_link,120000.0,208000.0,-366000.0,-1.0,0.0,0.0,0.0,0.0,0.0,0.0,0.0,0.0
1574069804770648628,132,1574069804770414262,base_link,122000.0,211000.0,-369000.0,-1.0,0.0,0.0,0.0,0.0,0.0,0.0,0.0,0.0
1574069804972362267,133,1574069804971984625,base_link,121000.0,212000.0,-369000.0,-1.0,0.0,0.0,0.0,0.0,0.0,0.0,0.0,0.0
1574069805224811207,134,1574069805224493887,base_link,130000.0,204000.0,-367000.0,-1.0,0.0,0.0,0.0,0.0,0.0,0.0,0.0,0.0
1574069805452589119,135,1574069805452348949,base_link,126000.0,204000.0,-363000.0,-1.0,0.0,0.0,0.0,0.0,0.0,0.0,0.0,0.0
1574069805715124224,136,1574069805714730782,base_link,131000.0,209000.0,-364000.0,-1.0,0.0,0.0,0.0,0.0,0.0,0.0,0.0,0.0
1574069805957190797,137,1574069805956908202,base_link,130000.0,218000.0,-364000.0,-1.0,0.0,0.0,0.0,0.0,0.0,0.0,0.0,0.0
1574069806173187283,138,1574069806172827712,base_link,121000.0,216000.0,-369000.0,-1.0,0.0,0.0,0.0,0.0,0.0,0.0,0.0,0.0
1574069806432995042,139,1574069806432893857,base_link,103000.0,211000.0,-368000.0,-1.0,0.0,0.0,0.0,0.0,0.0,0.0,0.0,0.0
1574069806678268518,140,1574069806677831362,base_link,110000.0,218000.0,-365000.0,-1.0,0.0,0.0,0.0,0.0,0.0,0.0,0.0,0.0
1574069806922172451,141,1574069806921981185,base_link,108000.0,222000.0,-369000.0,-1.0,0.0,0.0,0.0,0.0,0.0,0.0,0.0,0.0
1574069807135822399,142,1574069807135447979,base_link,105000.0,220000.0,-368000.0,-1.0,0.0,0.0,0.0,0.0,0.0,0.0,0.0,0.0
1574069807375433148,143,1574069807375259024,base_link,111000.0,216000.0,-358000.0,-1.0,0.0,0.0,0.0,0.0,0.0,0.0,0.0,0.0
1574069807643094798,144,1574069807642717942,base_link,103000.0,218000.0,-366000.0,-1.0,0.0,0.0,0.0,0.0,0.0,0.0,0.0,0.0
1574069807856295919,145,1574069807856098885,base_link,102000.0,226000.0,-368000.0,-1.0,0.0,0.0,0.0,0.0,0.0,0.0,0.0,0.0
1574069808086388691,146,1574069808085982614,base_link,100000.0,228000.0,-367000.0,-1.0,0.0,0.0,0.0,0.0,0.0,0.0,0.0,0.0
1574069808338479443,147,1574069808338249938,base_link,96000.0,223000.0,-359000.0,-1.0,0.0,0.0,0.0,0.0,0.0,0.0,0.0,0.0
1574069808597156851,148,1574069808596783772,base_link,67000.0,224000.0,-365000.0,-1.0,0.0,0.0,0.0,0.0,0.0,0.0,0.0,0.0
1574069808814601880,149,1574069808814371330,base_link,55000.0,223000.0,-358000.0,-1.0,0.0,0.0,0.0,0.0,0.0,0.0,0.0,0.0
1574069809044569891,150,1574069809044139797,base_link,55000.0,224000.0,-366000.0,-1.0,0.0,0.0,0.0,0.0,0.0,0.0,0.0,0.0
1574069809322490606,151,1574069809322294395,base_link,58000.0,228000.0,-367000.0,-1.0,0.0,0.0,0.0,0.0,0.0,0.0,0.0,0.0
1574069809544350067,152,1574069809544142343,base_link,54000.0,219000.0,-362000.0,-1.0,0.0,0.0,0.0,0.0,0.0,0.0,0.0,0.0
1574069809770577401,153,1574069809770180288,base_link,56000.0,217000.0,-368000.0,-1.0,0.0,0.0,0.0,0.0,0.0,0.0,0.0,0.0
1574069810015121901,154,1574069810014856537,base_link,55000.0,221000.0,-371000.0,-1.0,0.0,0.0,0.0,0.0,0.0,0.0,0.0,0.0
1574069810244934989,155,1574069810244539100,base_link,49000.0,222000.0,-368000.0,-1.0,0.0,0.0,0.0,0.0,0.0,0.0,0.0,0.0
1574069810511906367,156,1574069810511683189,base_link,44000.0,224000.0,-363000.0,-1.0,0.0,0.0,0.0,0.0,0.0,0.0,0.0,0.0
1574069810736093209,157,1574069810735676645,base_link,42000.0,224000.0,-365000.0,-1.0,0.0,0.0,0.0,0.0,0.0,0.0,0.0,0.0
1574069810966258042,158,1574069810966013512,base_link,42000.0,215000.0,-369000.0,-1.0,0.0,0.0,0.0,0.0,0.0,0.0,0.0,0.0
1574069811220746822,159,1574069811220357749,base_link,48000.0,221000.0,-367000.0,-1.0,0.0,0.0,0.0,0.0,0.0,0.0,0.0,0.0
1574069811449125218,160,1574069811448985004,base_link,60000.0,222000.0,-363000.0,-1.0,0.0,0.0,0.0,0.0,0.0,0.0,0.0,0.0
1574069811735607341,161,1574069811735212009,base_link,70000.0,216000.0,-373000.0,-1.0,0.0,0.0,0.0,0.0,0.0,0.0,0.0,0.0
1574069811931824529,162,1574069811931538699,base_link,69000.0,218000.0,-361000.0,-1.0,0.0,0.0,0.0,0.0,0.0,0.0,0.0,0.0
1574069812176591853,163,1574069812176247974,base_link,84000.0,227000.0,-367000.0,-1.0,0.0,0.0,0.0,0.0,0.0,0.0,0.0,0.0
1574069812432269044,164,1574069812432064577,base_link,88000.0,219000.0,-360000.0,-1.0,0.0,0.0,0.0,0.0,0.0,0.0,0.0,0.0
1574069812651584186,165,1574069812651285570,base_link,98000.0,223000.0,-355000.0,-1.0,0.0,0.0,0.0,0.0,0.0,0.0,0.0,0.0
1574069812905135225,166,1574069812904982769,base_link,97000.0,226000.0,-358000.0,-1.0,0.0,0.0,0.0,0.0,0.0,0.0,0.0,0.0
1574069813130745474,167,1574069813130486009,base_link,96000.0,225000.0,-355000.0,-1.0,0.0,0.0,0.0,0.0,0.0,0.0,0.0,0.0
1574069813374783299,168,1574069813374370918,base_link,103000.0,234000.0,-350000.0,-1.0,0.0,0.0,0.0,0.0,0.0,0.0,0.0,0.0
1574069813615278579,169,1574069813614993271,base_link,97000.0,240000.0,-345000.0,-1.0,0.0,0.0,0.0,0.0,0.0,0.0,0.0,0.0
1574069813852428594,170,1574069813852039036,base_link,91000.0,244000.0,-347000.0,-1.0,0.0,0.0,0.0,0.0,0.0,0.0,0.0,0.0
1574069814092170173,171,1574069814091984741,base_link,84000.0,243000.0,-341000.0,-1.0,0.0,0.0,0.0,0.0,0.0,0.0,0.0,0.0
1574069814339601232,172,1574069814339224908,base_link,91000.0,247000.0,-336000.0,-1.0,0.0,0.0,0.0,0.0,0.0,0.0,0.0,0.0
1574069814569187942,173,1574069814568992856,base_link,86000.0,241000.0,-340000.0,-1.0,0.0,0.0,0.0,0.0,0.0,0.0,0.0,0.0
1574069814816083318,174,1574069814815671214,base_link,93000.0,237000.0,-362000.0,-1.0,0.0,0.0,0.0,0.0,0.0,0.0,0.0,0.0
1574069815048848161,175,1574069815048559045,base_link,91000.0,236000.0,-346000.0,-1.0,0.0,0.0,0.0,0.0,0.0,0.0,0.0,0.0
1574069815302771570,176,1574069815302538123,base_link,95000.0,238000.0,-357000.0,-1.0,0.0,0.0,0.0,0.0,0.0,0.0,0.0,0.0
1574069815529744581,177,1574069815529595269,base_link,96000.0,234000.0,-355000.0,-1.0,0.0,0.0,0.0,0.0,0.0,0.0,0.0,0.0
1574069815785696671,178,1574069815785316273,base_link,76000.0,239000.0,-350000.0,-1.0,0.0,0.0,0.0,0.0,0.0,0.0,0.0,0.0
1574069816015071845,179,1574069816014859189,base_link,79000.0,243000.0,-351000.0,-1.0,0.0,0.0,0.0,0.0,0.0,0.0,0.0,0.0
1574069816262134388,180,1574069816261728159,base_link,88000.0,246000.0,-348000.0,-1.0,0.0,0.0,0.0,0.0,0.0,0.0,0.0,0.0
1574069816489304337,181,1574069816489150200,base_link,108000.0,244000.0,-334000.0,-1.0,0.0,0.0,0.0,0.0,0.0,0.0,0.0,0.0
1574069816734611236,182,1574069816734347400,base_link,110000.0,247000.0,-342000.0,-1.0,0.0,0.0,0.0,0.0,0.0,0.0,0.0,0.0
1574069816969033606,183,1574069816968712387,base_link,101000.0,252000.0,-344000.0,-1.0,0.0,0.0,0.0,0.0,0.0,0.0,0.0,0.0
1574069817208902411,184,1574069817208699928,base_link,99000.0,242000.0,-324000.0,-1.0,0.0,0.0,0.0,0.0,0.0,0.0,0.0,0.0
1574069817454719872,185,1574069817454284531,base_link,74000.0,253000.0,-342000.0,-1.0,0.0,0.0,0.0,0.0,0.0,0.0,0.0,0.0
1574069817699024382,186,1574069817698666075,base_link,78000.0,250000.0,-340000.0,-1.0,0.0,0.0,0.0,0.0,0.0,0.0,0.0,0.0
1574069817955521768,187,1574069817955379276,base_link,80000.0,253000.0,-335000.0,-1.0,0.0,0.0,0.0,0.0,0.0,0.0,0.0,0.0
1574069818215085120,188,1574069818214683056,base_link,94000.0,248000.0,-336000.0,-1.0,0.0,0.0,0.0,0.0,0.0,0.0,0.0,0.0
1574069818412192980,189,1574069818411798636,base_link,89000.0,252000.0,-339000.0,-1.0,0.0,0.0,0.0,0.0,0.0,0.0,0.0,0.0
1574069818647452057,190,1574069818647223570,base_link,105000.0,241000.0,-334000.0,-1.0,0.0,0.0,0.0,0.0,0.0,0.0,0.0,0.0
1574069818887360907,191,1574069818887023702,base_link,91000.0,257000.0,-348000.0,-1.0,0.0,0.0,0.0,0.0,0.0,0.0,0.0,0.0
1574069819151789344,192,1574069819151625422,base_link,98000.0,246000.0,-351000.0,-1.0,0.0,0.0,0.0,0.0,0.0,0.0,0.0,0.0
1574069819373640403,193,1574069819373222129,base_link,99000.0,232000.0,-345000.0,-1.0,0.0,0.0,0.0,0.0,0.0,0.0,0.0,0.0
1574069819615327126,194,1574069819615135274,base_link,104000.0,236000.0,-360000.0,-1.0,0.0,0.0,0.0,0.0,0.0,0.0,0.0,0.0
1574069819867510079,195,1574069819867146311,base_link,114000.0,229000.0,-357000.0,-1.0,0.0,0.0,0.0,0.0,0.0,0.0,0.0,0.0
1574069820123070484,196,1574069820122873867,base_link,122000.0,228000.0,-353000.0,-1.0,0.0,0.0,0.0,0.0,0.0,0.0,0.0,0.0
1574069820345045892,197,1574069820344655398,base_link,122000.0,225000.0,-340000.0,-1.0,0.0,0.0,0.0,0.0,0.0,0.0,0.0,0.0
1574069820584492471,198,1574069820584339659,base_link,125000.0,227000.0,-344000.0,-1.0,0.0,0.0,0.0,0.0,0.0,0.0,0.0,0.0
1574069820822634755,199,1574069820822211448,base_link,129000.0,217000.0,-351000.0,-1.0,0.0,0.0,0.0,0.0,0.0,0.0,0.0,0.0
1574069821064976388,200,1574069821064773601,base_link,129000.0,199000.0,-367000.0,-1.0,0.0,0.0,0.0,0.0,0.0,0.0,0.0,0.0
1574069821295904694,201,1574069821295709386,base_link,130000.0,187000.0,-379000.0,-1.0,0.0,0.0,0.0,0.0,0.0,0.0,0.0,0.0
1574069821541176577,202,1574069821540994868,base_link,128000.0,179000.0,-369000.0,-1.0,0.0,0.0,0.0,0.0,0.0,0.0,0.0,0.0
1574069821793294850,203,1574069821792995019,base_link,122000.0,173000.0,-383000.0,-1.0,0.0,0.0,0.0,0.0,0.0,0.0,0.0,0.0
1574069822031034360,204,1574069822030644675,base_link,127000.0,166000.0,-374000.0,-1.0,0.0,0.0,0.0,0.0,0.0,0.0,0.0,0.0
1574069822247824561,205,1574069822247591128,base_link,114000.0,162000.0,-383000.0,-1.0,0.0,0.0,0.0,0.0,0.0,0.0,0.0,0.0
1574069822492344228,206,1574069822491963746,base_link,126000.0,177000.0,-384000.0,-1.0,0.0,0.0,0.0,0.0,0.0,0.0,0.0,0.0
1574069822734775748,207,1574069822734586835,base_link,123000.0,199000.0,-377000.0,-1.0,0.0,0.0,0.0,0.0,0.0,0.0,0.0,0.0
1574069822991116122,208,1574069822990741212,base_link,123000.0,225000.0,-352000.0,-1.0,0.0,0.0,0.0,0.0,0.0,0.0,0.0,0.0
1574069823212099651,209,1574069823211896457,base_link,136000.0,235000.0,-343000.0,-1.0,0.0,0.0,0.0,0.0,0.0,0.0,0.0,0.0
1574069823451607107,210,1574069823451202477,base_link,141000.0,226000.0,-332000.0,-1.0,0.0,0.0,0.0,0.0,0.0,0.0,0.0,0.0
1574069823689591741,211,1574069823689355114,base_link,127000.0,231000.0,-354000.0,-1.0,0.0,0.0,0.0,0.0,0.0,0.0,0.0,0.0
1574069823936082276,212,1574069823935709219,base_link,127000.0,229000.0,-362000.0,-1.0,0.0,0.0,0.0,0.0,0.0,0.0,0.0,0.0
1574069824190247532,213,1574069824190000810,base_link,128000.0,215000.0,-359000.0,-1.0,0.0,0.0,0.0,0.0,0.0,0.0,0.0,0.0
1574069824413991848,214,1574069824413511266,base_link,122000.0,217000.0,-358000.0,-1.0,0.0,0.0,0.0,0.0,0.0,0.0,0.0,0.0
1574069824652169339,215,1574069824651993375,base_link,131000.0,216000.0,-363000.0,-1.0,0.0,0.0,0.0,0.0,0.0,0.0,0.0,0.0
1574069824889737526,216,1574069824889304142,base_link,133000.0,212000.0,-347000.0,-1.0,0.0,0.0,0.0,0.0,0.0,0.0,0.0,0.0
1574069825129666543,217,1574069825129357218,base_link,139000.0,217000.0,-364000.0,-1.0,0.0,0.0,0.0,0.0,0.0,0.0,0.0,0.0
1574069825371113592,218,1574069825370836703,base_link,150000.0,213000.0,-353000.0,-1.0,0.0,0.0,0.0,0.0,0.0,0.0,0.0,0.0
1574069825615305563,219,1574069825614869401,base_link,147000.0,218000.0,-348000.0,-1.0,0.0,0.0,0.0,0.0,0.0,0.0,0.0,0.0
1574069825846430980,220,1574069825846281679,base_link,145000.0,225000.0,-343000.0,-1.0,0.0,0.0,0.0,0.0,0.0,0.0,0.0,0.0
1574069826105644383,221,1574069826105306041,base_link,149000.0,230000.0,-354000.0,-1.0,0.0,0.0,0.0,0.0,0.0,0.0,0.0,0.0
1574069826331713821,222,1574069826331526531,base_link,154000.0,220000.0,-341000.0,-1.0,0.0,0.0,0.0,0.0,0.0,0.0,0.0,0.0
1574069826572521854,223,1574069826572170975,base_link,144000.0,216000.0,-356000.0,-1.0,0.0,0.0,0.0,0.0,0.0,0.0,0.0,0.0
1574069826809359505,224,1574069826809145306,base_link,150000.0,215000.0,-358000.0,-1.0,0.0,0.0,0.0,0.0,0.0,0.0,0.0,0.0
1574069827055058277,225,1574069827054666275,base_link,148000.0,205000.0,-358000.0,-1.0,0.0,0.0,0.0,0.0,0.0,0.0,0.0,0.0
1574069827289768698,226,1574069827289509020,base_link,153000.0,202000.0,-348000.0,-1.0,0.0,0.0,0.0,0.0,0.0,0.0,0.0,0.0
1574069827530503202,227,1574069827530017069,base_link,142000.0,213000.0,-350000.0,-1.0,0.0,0.0,0.0,0.0,0.0,0.0,0.0,0.0
1574069827775864886,228,1574069827775695929,base_link,137000.0,221000.0,-350000.0,-1.0,0.0,0.0,0.0,0.0,0.0,0.0,0.0,0.0
1574069828011428659,229,1574069828011047986,base_link,135000.0,221000.0,-350000.0,-1.0,0.0,0.0,0.0,0.0,0.0,0.0,0.0,0.0
1574069828281813510,230,1574069828281669615,base_link,138000.0,209000.0,-357000.0,-1.0,0.0,0.0,0.0,0.0,0.0,0.0,0.0,0.0
1574069828495889026,231,1574069828495475156,base_link,124000.0,220000.0,-361000.0,-1.0,0.0,0.0,0.0,0.0,0.0,0.0,0.0,0.0
1574069828729466441,232,1574069828729234750,base_link,121000.0,222000.0,-355000.0,-1.0,0.0,0.0,0.0,0.0,0.0,0.0,0.0,0.0
1574069828972879350,233,1574069828972489119,base_link,112000.0,231000.0,-358000.0,-1.0,0.0,0.0,0.0,0.0,0.0,0.0,0.0,0.0
1574069829208809682,234,1574069829208588160,base_link,122000.0,222000.0,-352000.0,-1.0,0.0,0.0,0.0,0.0,0.0,0.0,0.0,0.0
1574069829448536864,235,1574069829448119247,base_link,129000.0,219000.0,-351000.0,-1.0,0.0,0.0,0.0,0.0,0.0,0.0,0.0,0.0
1574069829687134420,236,1574069829686857339,base_link,121000.0,223000.0,-358000.0,-1.0,0.0,0.0,0.0,0.0,0.0,0.0,0.0,0.0
1574069829932636330,237,1574069829932505241,base_link,137000.0,219000.0,-350000.0,-1.0,0.0,0.0,0.0,0.0,0.0,0.0,0.0,0.0
1574069830180987727,238,1574069830180614027,base_link,136000.0,214000.0,-357000.0,-1.0,0.0,0.0,0.0,0.0,0.0,0.0,0.0,0.0
1574069830429522098,239,1574069830429387196,base_link,144000.0,223000.0,-338000.0,-1.0,0.0,0.0,0.0,0.0,0.0,0.0,0.0,0.0
1574069830675042297,240,1574069830674687068,base_link,149000.0,228000.0,-342000.0,-1.0,0.0,0.0,0.0,0.0,0.0,0.0,0.0,0.0
1574069830893265217,241,1574069830893054240,base_link,141000.0,240000.0,-342000.0,-1.0,0.0,0.0,0.0,0.0,0.0,0.0,0.0,0.0
1574069831130444164,242,1574069831130127621,base_link,152000.0,225000.0,-340000.0,-1.0,0.0,0.0,0.0,0.0,0.0,0.0,0.0,0.0
1574069831385208568,243,1574069831385027483,base_link,154000.0,219000.0,-332000.0,-1.0,0.0,0.0,0.0,0.0,0.0,0.0,0.0,0.0
1574069831615108783,244,1574069831614706470,base_link,154000.0,224000.0,-336000.0,-1.0,0.0,0.0,0.0,0.0,0.0,0.0,0.0,0.0
1574069831847087859,245,1574069831846926829,base_link,158000.0,231000.0,-340000.0,-1.0,0.0,0.0,0.0,0.0,0.0,0.0,0.0,0.0
1574069832105910227,246,1574069832105532705,base_link,164000.0,229000.0,-336000.0,-1.0,0.0,0.0,0.0,0.0,0.0,0.0,0.0,0.0
1574069832346413800,247,1574069832346212333,base_link,158000.0,229000.0,-338000.0,-1.0,0.0,0.0,0.0,0.0,0.0,0.0,0.0,0.0
1574069832600119579,248,1574069832599729739,base_link,153000.0,230000.0,-338000.0,-1.0,0.0,0.0,0.0,0.0,0.0,0.0,0.0,0.0
1574069832870386513,249,1574069832870202428,base_link,151000.0,225000.0,-339000.0,-1.0,0.0,0.0,0.0,0.0,0.0,0.0,0.0,0.0
1574069833044742288,250,1574069833044362462,base_link,149000.0,232000.0,-336000.0,-1.0,0.0,0.0,0.0,0.0,0.0,0.0,0.0,0.0
1574069833294927070,251,1574069833294746591,base_link,139000.0,243000.0,-346000.0,-1.0,0.0,0.0,0.0,0.0,0.0,0.0,0.0,0.0
1574069833532704685,252,1574069833532298946,base_link,147000.0,235000.0,-330000.0,-1.0,0.0,0.0,0.0,0.0,0.0,0.0,0.0,0.0
1574069833772618814,253,1574069833772341987,base_link,132000.0,238000.0,-337000.0,-1.0,0.0,0.0,0.0,0.0,0.0,0.0,0.0,0.0
1574069834011151260,254,1574069834010736534,base_link,128000.0,235000.0,-348000.0,-1.0,0.0,0.0,0.0,0.0,0.0,0.0,0.0,0.0
1574069834261202898,255,1574069834260960449,base_link,131000.0,236000.0,-343000.0,-1.0,0.0,0.0,0.0,0.0,0.0,0.0,0.0,0.0
1574069834532351626,256,1574069834531992547,base_link,134000.0,234000.0,-340000.0,-1.0,0.0,0.0,0.0,0.0,0.0,0.0,0.0,0.0
1574069834775453382,257,1574069834775270666,base_link,136000.0,235000.0,-345000.0,-1.0,0.0,0.0,0.0,0.0,0.0,0.0,0.0,0.0
1574069834979021240,258,1574069834978834315,base_link,137000.0,235000.0,-341000.0,-1.0,0.0,0.0,0.0,0.0,0.0,0.0,0.0,0.0
1574069835209829664,259,1574069835209413206,base_link,142000.0,235000.0,-339000.0,-1.0,0.0,0.0,0.0,0.0,0.0,0.0,0.0,0.0
1574069835474531917,260,1574069835474295086,base_link,138000.0,242000.0,-345000.0,-1.0,0.0,0.0,0.0,0.0,0.0,0.0,0.0,0.0
1574069835690281947,261,1574069835689799648,base_link,146000.0,234000.0,-336000.0,-1.0,0.0,0.0,0.0,0.0,0.0,0.0,0.0,0.0
1574069835932717722,262,1574069835932463338,base_link,146000.0,236000.0,-335000.0,-1.0,0.0,0.0,0.0,0.0,0.0,0.0,0.0,0.0
1574069836175598393,263,1574069836175204478,base_link,143000.0,240000.0,-336000.0,-1.0,0.0,0.0,0.0,0.0,0.0,0.0,0.0,0.0
1574069836409725227,264,1574069836409572850,base_link,148000.0,234000.0,-337000.0,-1.0,0.0,0.0,0.0,0.0,0.0,0.0,0.0,0.0
1574069836672555813,265,1574069836672155803,base_link,142000.0,244000.0,-348000.0,-1.0,0.0,0.0,0.0,0.0,0.0,0.0,0.0,0.0
1574069836886943458,266,1574069836886747879,base_link,143000.0,233000.0,-332000.0,-1.0,0.0,0.0,0.0,0.0,0.0,0.0,0.0,0.0
1574069837145007638,267,1574069837144661967,base_link,147000.0,243000.0,-337000.0,-1.0,0.0,0.0,0.0,0.0,0.0,0.0,0.0,0.0
1574069837385015719,268,1574069837384864930,base_link,133000.0,245000.0,-335000.0,-1.0,0.0,0.0,0.0,0.0,0.0,0.0,0.0,0.0
1574069837609894118,269,1574069837609539500,base_link,138000.0,241000.0,-335000.0,-1.0,0.0,0.0,0.0,0.0,0.0,0.0,0.0,0.0
1574069837855890819,270,1574069837855564346,base_link,147000.0,238000.0,-336000.0,-1.0,0.0,0.0,0.0,0.0,0.0,0.0,0.0,0.0
1574069838105516773,271,1574069838105312875,base_link,145000.0,240000.0,-330000.0,-1.0,0.0,0.0,0.0,0.0,0.0,0.0,0.0,0.0
1574069838330926045,272,1574069838330665406,base_link,141000.0,244000.0,-334000.0,-1.0,0.0,0.0,0.0,0.0,0.0,0.0,0.0,0.0
1574069838605459012,273,1574069838605151145,base_link,142000.0,246000.0,-337000.0,-1.0,0.0,0.0,0.0,0.0,0.0,0.0,0.0,0.0
1574069838811568532,274,1574069838811217143,base_link,141000.0,239000.0,-331000.0,-1.0,0.0,0.0,0.0,0.0,0.0,0.0,0.0,0.0
1574069839045958471,275,1574069839045748442,base_link,147000.0,238000.0,-337000.0,-1.0,0.0,0.0,0.0,0.0,0.0,0.0,0.0,0.0
1574069839290109561,276,1574069839289684682,base_link,148000.0,234000.0,-344000.0,-1.0,0.0,0.0,0.0,0.0,0.0,0.0,0.0,0.0
1574069839531657611,277,1574069839531351458,base_link,146000.0,235000.0,-342000.0,-1.0,0.0,0.0,0.0,0.0,0.0,0.0,0.0,0.0
1574069839787489160,278,1574069839787102692,base_link,144000.0,251000.0,-353000.0,-1.0,0.0,0.0,0.0,0.0,0.0,0.0,0.0,0.0
1574069840041827309,279,1574069840041626270,base_link,146000.0,235000.0,-338000.0,-1.0,0.0,0.0,0.0,0.0,0.0,0.0,0.0,0.0
1574069840247597076,280,1574069840247191022,base_link,147000.0,230000.0,-342000.0,-1.0,0.0,0.0,0.0,0.0,0.0,0.0,0.0,0.0
1574069840489719544,281,1574069840489595123,base_link,138000.0,230000.0,-343000.0,-1.0,0.0,0.0,0.0,0.0,0.0,0.0,0.0,0.0
1574069840763786318,282,1574069840763402155,base_link,139000.0,237000.0,-336000.0,-1.0,0.0,0.0,0.0,0.0,0.0,0.0,0.0,0.0
1574069840976084467,283,1574069840975906896,base_link,140000.0,225000.0,-312000.0,-1.0,0.0,0.0,0.0,0.0,0.0,0.0,0.0,0.0
1574069841222134047,284,1574069841221660965,base_link,134000.0,236000.0,-334000.0,-1.0,0.0,0.0,0.0,0.0,0.0,0.0,0.0,0.0
1574069841448148786,285,1574069841447939827,base_link,131000.0,238000.0,-335000.0,-1.0,0.0,0.0,0.0,0.0,0.0,0.0,0.0,0.0
1574069841692538571,286,1574069841692193828,base_link,130000.0,238000.0,-343000.0,-1.0,0.0,0.0,0.0,0.0,0.0,0.0,0.0,0.0
1574069841991290813,287,1574069841991060185,base_link,135000.0,229000.0,-341000.0,-1.0,0.0,0.0,0.0,0.0,0.0,0.0,0.0,0.0
1574069842201766578,288,1574069842201376780,base_link,137000.0,235000.0,-341000.0,-1.0,0.0,0.0,0.0,0.0,0.0,0.0,0.0,0.0
1574069842428975781,289,1574069842428766623,base_link,140000.0,233000.0,-337000.0,-1.0,0.0,0.0,0.0,0.0,0.0,0.0,0.0,0.0
1574069842651650299,290,1574069842651415659,base_link,146000.0,224000.0,-326000.0,-1.0,0.0,0.0,0.0,0.0,0.0,0.0,0.0,0.0
1574069842887247583,291,1574069842886817311,base_link,148000.0,238000.0,-327000.0,-1.0,0.0,0.0,0.0,0.0,0.0,0.0,0.0,0.0
1574069843129608929,292,1574069843129343795,base_link,146000.0,247000.0,-338000.0,-1.0,0.0,0.0,0.0,0.0,0.0,0.0,0.0,0.0
1574069843399192796,293,1574069843398873948,base_link,146000.0,241000.0,-328000.0,-1.0,0.0,0.0,0.0,0.0,0.0,0.0,0.0,0.0
1574069843613666190,294,1574069843613473402,base_link,147000.0,245000.0,-327000.0,-1.0,0.0,0.0,0.0,0.0,0.0,0.0,0.0,0.0
1574069843847708903,295,1574069843847398688,base_link,149000.0,240000.0,-336000.0,-1.0,0.0,0.0,0.0,0.0,0.0,0.0,0.0,0.0
1574069844104113997,296,1574069844103944085,base_link,139000.0,242000.0,-343000.0,-1.0,0.0,0.0,0.0,0.0,0.0,0.0,0.0,0.0
1574069844333269543,297,1574069844332900146,base_link,133000.0,243000.0,-350000.0,-1.0,0.0,0.0,0.0,0.0,0.0,0.0,0.0,0.0
1574069844596134722,298,1574069844596006628,base_link,129000.0,239000.0,-346000.0,-1.0,0.0,0.0,0.0,0.0,0.0,0.0,0.0,0.0
1574069844816636884,299,1574069844816241572,base_link,120000.0,232000.0,-347000.0,-1.0,0.0,0.0,0.0,0.0,0.0,0.0,0.0,0.0
1574069845052606677,300,1574069845052401305,base_link,111000.0,228000.0,-345000.0,-1.0,0.0,0.0,0.0,0.0,0.0,0.0,0.0,0.0
1574069845297384939,301,1574069845297012068,base_link,103000.0,232000.0,-349000.0,-1.0,0.0,0.0,0.0,0.0,0.0,0.0,0.0,0.0
1574069845535615166,302,1574069845535405976,base_link,93000.0,222000.0,-354000.0,-1.0,0.0,0.0,0.0,0.0,0.0,0.0,0.0,0.0
1574069845771882551,303,1574069845771703433,base_link,71000.0,229000.0,-359000.0,-1.0,0.0,0.0,0.0,0.0,0.0,0.0,0.0,0.0
1574069846007825061,304,1574069846007428141,base_link,65000.0,228000.0,-357000.0,-1.0,0.0,0.0,0.0,0.0,0.0,0.0,0.0,0.0
1574069846260822212,305,1574069846260544900,base_link,63000.0,219000.0,-366000.0,-1.0,0.0,0.0,0.0,0.0,0.0,0.0,0.0,0.0
1574069846526242341,306,1574069846525874187,base_link,57000.0,221000.0,-359000.0,-1.0,0.0,0.0,0.0,0.0,0.0,0.0,0.0,0.0
1574069846753718369,307,1574069846753517620,base_link,44000.0,238000.0,-374000.0,-1.0,0.0,0.0,0.0,0.0,0.0,0.0,0.0,0.0
1574069847001206257,308,1574069847000867713,base_link,24000.0,236000.0,-365000.0,-1.0,0.0,0.0,0.0,0.0,0.0,0.0,0.0,0.0
1574069847236839032,309,1574069847236598667,base_link,16000.0,235000.0,-367000.0,-1.0,0.0,0.0,0.0,0.0,0.0,0.0,0.0,0.0
1574069847478727578,310,1574069847478337912,base_link,39000.0,229000.0,-372000.0,-1.0,0.0,0.0,0.0,0.0,0.0,0.0,0.0,0.0
1574069847712558807,311,1574069847712403809,base_link,20000.0,227000.0,-374000.0,-1.0,0.0,0.0,0.0,0.0,0.0,0.0,0.0,0.0
1574069847968187683,312,1574069847967810086,base_link,29000.0,219000.0,-382000.0,-1.0,0.0,0.0,0.0,0.0,0.0,0.0,0.0,0.0
1574069848199422889,313,1574069848199214516,base_link,27000.0,223000.0,-373000.0,-1.0,0.0,0.0,0.0,0.0,0.0,0.0,0.0,0.0
1574069848432972741,314,1574069848432697950,base_link,26000.0,226000.0,-372000.0,-1.0,0.0,0.0,0.0,0.0,0.0,0.0,0.0,0.0
1574069848679819448,315,1574069848679579390,base_link,34000.0,224000.0,-372000.0,-1.0,0.0,0.0,0.0,0.0,0.0,0.0,0.0,0.0
1574069848922839600,316,1574069848922453742,base_link,40000.0,227000.0,-364000.0,-1.0,0.0,0.0,0.0,0.0,0.0,0.0,0.0,0.0
1574069849150266771,317,1574069849150050332,base_link,41000.0,226000.0,-358000.0,-1.0,0.0,0.0,0.0,0.0,0.0,0.0,0.0,0.0
1574069849401730757,318,1574069849401386617,base_link,41000.0,228000.0,-363000.0,-1.0,0.0,0.0,0.0,0.0,0.0,0.0,0.0,0.0
1574069849652502711,319,1574069849652287072,base_link,47000.0,226000.0,-369000.0,-1.0,0.0,0.0,0.0,0.0,0.0,0.0,0.0,0.0
1574069849885224827,320,1574069849884749230,base_link,38000.0,227000.0,-358000.0,-1.0,0.0,0.0,0.0,0.0,0.0,0.0,0.0,0.0
1574069850109970780,321,1574069850109746659,base_link,42000.0,227000.0,-363000.0,-1.0,0.0,0.0,0.0,0.0,0.0,0.0,0.0,0.0
1574069850353600009,322,1574069850353248319,base_link,44000.0,224000.0,-362000.0,-1.0,0.0,0.0,0.0,0.0,0.0,0.0,0.0,0.0
1574069850605040366,323,1574069850604823571,base_link,49000.0,228000.0,-364000.0,-1.0,0.0,0.0,0.0,0.0,0.0,0.0,0.0,0.0
1574069850831478812,324,1574069850831178271,base_link,46000.0,224000.0,-370000.0,-1.0,0.0,0.0,0.0,0.0,0.0,0.0,0.0,0.0
1574069851079969794,325,1574069851079754426,base_link,43000.0,225000.0,-361000.0,-1.0,0.0,0.0,0.0,0.0,0.0,0.0,0.0,0.0
1574069851309442558,326,1574069851309181159,base_link,44000.0,225000.0,-366000.0,-1.0,0.0,0.0,0.0,0.0,0.0,0.0,0.0,0.0
1574069851559095179,327,1574069851558953423,base_link,51000.0,223000.0,-366000.0,-1.0,0.0,0.0,0.0,0.0,0.0,0.0,0.0,0.0
1574069851800849972,328,1574069851800618715,base_link,52000.0,224000.0,-370000.0,-1.0,0.0,0.0,0.0,0.0,0.0,0.0,0.0,0.0
1574069852031987299,329,1574069852031816262,base_link,41000.0,224000.0,-364000.0,-1.0,0.0,0.0,0.0,0.0,0.0,0.0,0.0,0.0
1574069852283463592,330,1574069852283072559,base_link,43000.0,223000.0,-365000.0,-1.0,0.0,0.0,0.0,0.0,0.0,0.0,0.0,0.0
1574069852511579279,331,1574069852511420910,base_link,46000.0,226000.0,-372000.0,-1.0,0.0,0.0,0.0,0.0,0.0,0.0,0.0,0.0
1574069852766151855,332,1574069852765723485,base_link,47000.0,228000.0,-371000.0,-1.0,0.0,0.0,0.0,0.0,0.0,0.0,0.0,0.0
1574069852999040357,333,1574069852998869141,base_link,49000.0,226000.0,-371000.0,-1.0,0.0,0.0,0.0,0.0,0.0,0.0,0.0,0.0
1574069853232603762,334,1574069853232272763,base_link,45000.0,223000.0,-364000.0,-1.0,0.0,0.0,0.0,0.0,0.0,0.0,0.0,0.0
1574069853479365098,335,1574069853479154897,base_link,49000.0,223000.0,-371000.0,-1.0,0.0,0.0,0.0,0.0,0.0,0.0,0.0,0.0
1574069853720213088,336,1574069853719816557,base_link,49000.0,226000.0,-366000.0,-1.0,0.0,0.0,0.0,0.0,0.0,0.0,0.0,0.0
1574069853972083032,337,1574069853971857831,base_link,47000.0,222000.0,-371000.0,-1.0,0.0,0.0,0.0,0.0,0.0,0.0,0.0,0.0
1574069854200238287,338,1574069854200049023,base_link,44000.0,225000.0,-369000.0,-1.0,0.0,0.0,0.0,0.0,0.0,0.0,0.0,0.0
1574069854436832883,339,1574069854436658437,base_link,48000.0,222000.0,-361000.0,-1.0,0.0,0.0,0.0,0.0,0.0,0.0,0.0,0.0
1574069854679661059,340,1574069854679295385,base_link,50000.0,223000.0,-367000.0,-1.0,0.0,0.0,0.0,0.0,0.0,0.0,0.0,0.0
1574069854913132668,341,1574069854912903770,base_link,49000.0,227000.0,-365000.0,-1.0,0.0,0.0,0.0,0.0,0.0,0.0,0.0,0.0
1574069855150771531,342,1574069855150477780,base_link,44000.0,223000.0,-366000.0,-1.0,0.0,0.0,0.0,0.0,0.0,0.0,0.0,0.0
1574069855404612709,343,1574069855404428186,base_link,44000.0,230000.0,-360000.0,-1.0,0.0,0.0,0.0,0.0,0.0,0.0,0.0,0.0
1574069855633091726,344,1574069855632696354,base_link,51000.0,224000.0,-368000.0,-1.0,0.0,0.0,0.0,0.0,0.0,0.0,0.0,0.0
1574069855879911089,345,1574069855879693204,base_link,50000.0,226000.0,-367000.0,-1.0,0.0,0.0,0.0,0.0,0.0,0.0,0.0,0.0
1574069856120409532,346,1574069856120034537,base_link,48000.0,227000.0,-358000.0,-1.0,0.0,0.0,0.0,0.0,0.0,0.0,0.0,0.0
1574069856359018176,347,1574069856358829900,base_link,41000.0,238000.0,-366000.0,-1.0,0.0,0.0,0.0,0.0,0.0,0.0,0.0,0.0
1574069856592557408,348,1574069856592251121,base_link,49000.0,225000.0,-367000.0,-1.0,0.0,0.0,0.0,0.0,0.0,0.0,0.0,0.0
1574069856839321742,349,1574069856839094897,base_link,46000.0,226000.0,-369000.0,-1.0,0.0,0.0,0.0,0.0,0.0,0.0,0.0,0.0
1574069857080119206,350,1574069857079731627,base_link,39000.0,226000.0,-362000.0,-1.0,0.0,0.0,0.0,0.0,0.0,0.0,0.0,0.0
1574069857319705145,351,1574069857319498688,base_link,40000.0,221000.0,-367000.0,-1.0,0.0,0.0,0.0,0.0,0.0,0.0,0.0,0.0
1574069857557612153,352,1574069857557250212,base_link,48000.0,222000.0,-366000.0,-1.0,0.0,0.0,0.0,0.0,0.0,0.0,0.0,0.0
1574069857797359738,353,1574069857797165258,base_link,50000.0,220000.0,-370000.0,-1.0,0.0,0.0,0.0,0.0,0.0,0.0,0.0,0.0
1574069858044742440,354,1574069858044387766,base_link,42000.0,223000.0,-364000.0,-1.0,0.0,0.0,0.0,0.0,0.0,0.0,0.0,0.0
1574069858279461865,355,1574069858279184619,base_link,44000.0,227000.0,-360000.0,-1.0,0.0,0.0,0.0,0.0,0.0,0.0,0.0,0.0
1574069858523259875,356,1574069858522939505,base_link,49000.0,225000.0,-365000.0,-1.0,0.0,0.0,0.0,0.0,0.0,0.0,0.0,0.0
1574069858759773316,357,1574069858759460150,base_link,48000.0,224000.0,-368000.0,-1.0,0.0,0.0,0.0,0.0,0.0,0.0,0.0,0.0
1574069859000437733,358,1574069859000039011,base_link,46000.0,219000.0,-359000.0,-1.0,0.0,0.0,0.0,0.0,0.0,0.0,0.0,0.0
1574069859239124415,359,1574069859233130495,base_link,41000.0,224000.0,-365000.0,-1.0,0.0,0.0,0.0,0.0,0.0,0.0,0.0,0.0
1574069859477118415,360,1574069859476840219,base_link,39000.0,225000.0,-365000.0,-1.0,0.0,0.0,0.0,0.0,0.0,0.0,0.0,0.0
1574069859709596658,361,1574069859709382443,base_link,44000.0,229000.0,-363000.0,-1.0,0.0,0.0,0.0,0.0,0.0,0.0,0.0,0.0
1574069859949354127,362,1574069859949144769,base_link,44000.0,228000.0,-372000.0,-1.0,0.0,0.0,0.0,0.0,0.0,0.0,0.0,0.0
1574069860195699486,363,1574069860195332930,base_link,44000.0,226000.0,-366000.0,-1.0,0.0,0.0,0.0,0.0,0.0,0.0,0.0,0.0
1574069860439243126,364,1574069860439091425,base_link,40000.0,223000.0,-364000.0,-1.0,0.0,0.0,0.0,0.0,0.0,0.0,0.0,0.0
1574069860674175448,365,1574069860673761409,base_link,50000.0,224000.0,-367000.0,-1.0,0.0,0.0,0.0,0.0,0.0,0.0,0.0,0.0
1574069860910215505,366,1574069860909941849,base_link,49000.0,223000.0,-368000.0,-1.0,0.0,0.0,0.0,0.0,0.0,0.0,0.0,0.0
1574069861165686584,367,1574069861165242528,base_link,44000.0,225000.0,-363000.0,-1.0,0.0,0.0,0.0,0.0,0.0,0.0,0.0,0.0
1574069861395842384,368,1574069861395642095,base_link,40000.0,224000.0,-365000.0,-1.0,0.0,0.0,0.0,0.0,0.0,0.0,0.0,0.0
1574069861630768490,369,1574069861630437609,base_link,46000.0,225000.0,-365000.0,-1.0,0.0,0.0,0.0,0.0,0.0,0.0,0.0,0.0
1574069861879118992,370,1574069861878907820,base_link,45000.0,219000.0,-367000.0,-1.0,0.0,0.0,0.0,0.0,0.0,0.0,0.0,0.0
1574069862113686919,371,1574069862113324971,base_link,45000.0,223000.0,-361000.0,-1.0,0.0,0.0,0.0,0.0,0.0,0.0,0.0,0.0
1574069862352894602,372,1574069862352707549,base_link,45000.0,224000.0,-361000.0,-1.0,0.0,0.0,0.0,0.0,0.0,0.0,0.0,0.0
1574069862612588146,373,1574069862612198450,base_link,52000.0,221000.0,-364000.0,-1.0,0.0,0.0,0.0,0.0,0.0,0.0,0.0,0.0
1574069862838557316,374,1574069862838284762,base_link,50000.0,224000.0,-368000.0,-1.0,0.0,0.0,0.0,0.0,0.0,0.0,0.0,0.0
1574069863076568753,375,1574069863076187768,base_link,43000.0,227000.0,-363000.0,-1.0,0.0,0.0,0.0,0.0,0.0,0.0,0.0,0.0
1574069863312993798,376,1574069863312786643,base_link,43000.0,223000.0,-363000.0,-1.0,0.0,0.0,0.0,0.0,0.0,0.0,0.0,0.0
1574069863549056030,377,1574069863548874480,base_link,49000.0,228000.0,-369000.0,-1.0,0.0,0.0,0.0,0.0,0.0,0.0,0.0,0.0
1574069863799150316,378,1574069863798938042,base_link,47000.0,224000.0,-367000.0,-1.0,0.0,0.0,0.0,0.0,0.0,0.0,0.0,0.0
1574069864039927132,379,1574069864039578565,base_link,46000.0,223000.0,-358000.0,-1.0,0.0,0.0,0.0,0.0,0.0,0.0,0.0,0.0
1574069864281480327,380,1574069864281306144,base_link,41000.0,226000.0,-358000.0,-1.0,0.0,0.0,0.0,0.0,0.0,0.0,0.0,0.0
1574069864523367210,381,1574069864523063388,base_link,48000.0,225000.0,-370000.0,-1.0,0.0,0.0,0.0,0.0,0.0,0.0,0.0,0.0
1574069864758828491,382,1574069864758590315,base_link,46000.0,223000.0,-369000.0,-1.0,0.0,0.0,0.0,0.0,0.0,0.0,0.0,0.0
1574069864999656388,383,1574069864999206923,base_link,37000.0,226000.0,-359000.0,-1.0,0.0,0.0,0.0,0.0,0.0,0.0,0.0,0.0
