%time,field.header.seq,field.header.stamp,field.header.frame_id,field.twist.linear.x,field.twist.linear.y,field.twist.linear.z,field.twist.angular.x,field.twist.angular.y,field.twist.angular.z
1574069785712966341,53,1574069785712742836,base_link,0.143508762121,0.0709669664502,-0.0604653954506,0.0,0.0,0.0
1574069785953076376,54,1574069785952704773,base_link,0.128834187984,0.0386361852288,-0.0635946989059,0.0,0.0,0.0
1574069786193059283,55,1574069786192777145,base_link,0.111505955458,0.00107089162339,-0.0675881877542,0.0,0.0,0.0
1574069786436757361,56,1574069786436379125,base_link,0.0961934626102,-0.0155623592436,-0.0695352330804,0.0,0.0,0.0
1574069786673415194,57,1574069786673173222,base_link,0.088152050972,-0.0135202016681,-0.0699771642685,0.0,0.0,0.0
1574069786913556301,58,1574069786913132463,base_link,0.0797838270664,-0.00899501238018,-0.0733548477292,0.0,0.0,0.0
1574069787152809481,59,1574069787152272004,base_link,0.0689991042018,0.000705785176251,-0.0769944563508,0.0,0.0,0.0
1574069787393868316,60,1574069787393422648,base_link,0.058506809175,-0.00433859042823,-0.0800049826503,0.0,0.0,0.0
1574069787636409766,61,1574069787636076753,base_link,0.053362801671,-0.0291365850717,-0.0795999541879,0.0,0.0,0.0
1574069787876176206,62,1574069787875732097,base_link,0.0391376055777,-0.0535193048418,-0.0791316628456,0.0,0.0,0.0
1574069788113211213,63,1574069788112958588,base_link,0.0296951532364,-0.0528597980738,-0.0796738788486,0.0,0.0,0.0
1574069788354793237,64,1574069788354338323,base_link,0.0225246995687,-0.0392340384424,-0.0778220593929,0.0,0.0,0.0
1574069788593380695,65,1574069788593095599,base_link,0.015609389171,-0.0306721888483,-0.0750469118357,0.0,0.0,0.0
1574069788833627578,66,1574069788833199200,base_link,0.00854065734893,-0.0273945052177,-0.0744826197624,0.0,0.0,0.0
1574069789072891088,67,1574069789072666270,base_link,0.00255495426245,-0.0234698429704,-0.0739751011133,0.0,0.0,0.0
1574069789313624912,68,1574069789313167484,base_link,-0.000263534748228,-0.028232332319,-0.0723233148456,0.0,0.0,0.0
1574069789555262773,69,1574069789554959277,base_link,-0.00185240176506,-0.0363253876567,-0.0694495663047,0.0,0.0,0.0
1574069789792894465,70,1574069789792456877,base_link,-0.00442629726604,-0.0341830849648,-0.0697841271758,0.0,0.0,0.0
1574069790036246495,71,1574069790035945911,base_link,-0.00997261051089,-0.0349400267005,-0.0690621137619,0.0,0.0,0.0
1574069790273395427,72,1574069790273011778,base_link,-0.0162675641477,-0.0444485396147,-0.0663824826479,0.0,0.0,0.0
1574069790512690856,73,1574069790512409504,base_link,-0.0116073861718,-0.0377155020833,-0.0655446872115,0.0,0.0,0.0
1574069790752247525,74,1574069790752043660,base_link,-0.0131891686469,-0.030094826594,-0.0659462660551,0.0,0.0,0.0
1574069790992870829,75,1574069790992592200,base_link,-0.0185240507126,-0.0196047853678,-0.0673169270158,0.0,0.0,0.0
1574069791234618515,76,1574069791234131396,base_link,-0.0229552313685,-0.00583798764274,-0.0678768903017,0.0,0.0,0.0
1574069791471527293,77,1574069791471369709,base_link,-0.0218006055802,-0.00819674041122,-0.065318852663,0.0,0.0,0.0
1574069791713743199,78,1574069791713299035,base_link,-0.0215810928494,-0.0119941066951,-0.0631319507957,0.0,0.0,0.0
1574069791952184163,79,1574069791951876863,base_link,-0.0228035692126,-0.0205101408064,-0.0615757778287,0.0,0.0,0.0
1574069792193423105,80,1574069792193045727,base_link,-0.0215021371841,-0.0310998540372,-0.0613836422563,0.0,0.0,0.0
1574069792433501613,81,1574069792433272599,base_link,-0.021936038509,-0.0400250665843,-0.0606687776744,0.0,0.0,0.0
1574069792674468969,82,1574069792674010095,base_link,-0.0232419837266,-0.0518150627613,-0.0573821216822,0.0,0.0,0.0
1574069792913305797,83,1574069792912179005,base_link,-0.0234022047371,-0.0593249872327,-0.0550430268049,0.0,0.0,0.0
1574069793152534018,84,1574069793152163309,base_link,-0.0246420279145,-0.0666844621301,-0.0537477061152,0.0,0.0,0.0
1574069793393043730,85,1574069793392849025,base_link,-0.0218825321645,-0.0639790520072,-0.0524296090007,0.0,0.0,0.0
1574069793642288555,86,1574069793642069782,base_link,-0.0194409769028,-0.06700643152,-0.0489352233708,0.0,0.0,0.0
1574069793913644472,87,1574069793913261224,base_link,-0.0174121595919,-0.093118019402,-0.0462532453239,0.0,0.0,0.0
1574069794213241927,88,1574069794212810935,base_link,-0.0174672137946,-0.122635953128,-0.0414084382355,0.0,0.0,0.0
1574069794532506363,89,1574069794532269838,base_link,-0.015567892231,-0.120365411043,-0.0370028801262,0.0,0.0,0.0
1574069794793688082,90,1574069794793198661,base_link,-0.0121287703514,-0.112672045827,-0.0340411141515,0.0,0.0,0.0
1574069795072903683,91,1574069795072660999,base_link,-0.00741880806163,-0.0980655401945,-0.031436342746,0.0,0.0,0.0
1574069795353736143,92,1574069795353487221,base_link,-0.00197329558432,-0.0805716589093,-0.0301636438817,0.0,0.0,0.0
1574069795688420272,93,1574069795688026709,base_link,0.0011736350134,-0.0817407220602,-0.0251808483154,0.0,0.0,0.0
1574069795916756172,94,1574069795916562090,base_link,0.0034952450078,-0.0910982191563,-0.02400900051,0.0,0.0,0.0
1574069796200842441,95,1574069796200448921,base_link,0.00624688062817,-0.101197697222,-0.0242680050433,0.0,0.0,0.0
1574069796482196147,96,1574069796481953435,base_link,0.0132286343724,-0.129619017243,-0.0217249561101,0.0,0.0,0.0
1574069796754606316,97,1574069796754249371,base_link,0.01925984025,-0.159633681178,-0.0169345829636,0.0,0.0,0.0
1574069797034832606,98,1574069797034535703,base_link,0.0217749979347,-0.188761025667,-0.0146420504898,0.0,0.0,0.0
1574069797339772368,99,1574069797339537429,base_link,0.0154672237113,-0.217947006226,-0.0128663191572,0.0,0.0,0.0
1574069797615023998,100,1574069797614636803,base_link,-0.00227757962421,-0.23271510005,-0.0074378522113,0.0,0.0,0.0
1574069797894848253,101,1574069797894548650,base_link,-0.00647750589997,-0.234784260392,-0.00575017882511,0.0,0.0,0.0
1574069798173975353,102,1574069798173446944,base_link,-0.00445555988699,-0.235061258078,-0.00548948068172,0.0,0.0,0.0
1574069798434535523,103,1574069798434260813,base_link,0.00309988833033,-0.231273412704,-0.00749724823982,0.0,0.0,0.0
1574069798697503072,104,1574069798697091925,base_link,0.0221131984144,-0.209690868855,-0.00870458222926,0.0,0.0,0.0
1574069799003214194,105,1574069799002947792,base_link,0.0396398901939,-0.194476783276,-0.0105375293642,0.0,0.0,0.0
1574069799271969181,106,1574069799271769656,base_link,0.0582700781524,-0.182771652937,-0.0110829472542,0.0,0.0,0.0
1574069799558023322,107,1574069799557535300,base_link,0.0679157525301,-0.162088468671,-0.0147259477526,0.0,0.0,0.0
1574069799835480313,108,1574069799835260472,base_link,0.0757129490376,-0.139845356345,-0.0199350584298,0.0,0.0,0.0
1574069800133599352,109,1574069800133135899,base_link,0.0899694636464,-0.10893215239,-0.0250251311809,0.0,0.0,0.0
1574069800431074356,110,1574069800430839940,base_link,0.0965421721339,-0.0981735661626,-0.0287612359971,0.0,0.0,0.0
1574069800696887187,111,1574069800696484420,base_link,0.124369449914,-0.0833517462015,-0.028934692964,0.0,0.0,0.0
1574069800973022580,112,1574069800972580309,base_link,0.132213905454,-0.0726345255971,-0.0299839153886,0.0,0.0,0.0
1574069801294687566,113,1574069801294475193,base_link,0.135912820697,-0.0598102994263,-0.0300547052175,0.0,0.0,0.0
1574069801554526608,114,1574069801553896042,base_link,0.137246593833,-0.056997936219,-0.0292358268052,0.0,0.0,0.0
1574069801832663378,115,1574069801832429809,base_link,0.131945937872,-0.0464730001986,-0.0272610932589,0.0,0.0,0.0
1574069802133967125,116,1574069802133497271,base_link,0.130269482732,-0.0453599505126,-0.0268306117505,0.0,0.0,0.0
1574069802412144290,117,1574069802411895132,base_link,0.125622004271,-0.0322878323495,-0.0270282775164,0.0,0.0,0.0
1574069802694089122,118,1574069802693564524,base_link,0.118190057576,-0.018697751686,-0.0249301958829,0.0,0.0,0.0
1574069802972408012,119,1574069802972103780,base_link,0.115607149899,0.00182608352043,-0.0265975408256,0.0,0.0,0.0
1574069803234800787,120,1574069803234351092,base_link,0.0918697938323,0.0152806099504,-0.0284913666546,0.0,0.0,0.0
1574069803516176128,121,1574069803515781783,base_link,0.0652892515063,0.0262990668416,-0.0305402800441,0.0,0.0,0.0
1574069803832565182,122,1574069803832359977,base_link,0.0635032877326,0.0378261581063,-0.0342629514635,0.0,0.0,0.0
1574069804118047230,123,1574069804117601133,base_link,0.0667094886303,0.0514148958027,-0.0403179563582,0.0,0.0,0.0
1574069804388375860,124,1574069804388021614,base_link,0.0583263970912,0.0560952797532,-0.0399790927768,0.0,0.0,0.0
1574069804654177892,125,1574069804653633111,base_link,0.0426381193101,0.0567184761167,-0.0385915488005,0.0,0.0,0.0
1574069804932353815,126,1574069804932194123,base_link,0.0343883782625,0.0518765598536,-0.0391145274043,0.0,0.0,0.0
1574069805198452634,127,1574069805198153211,base_link,0.0309166722,0.0515115186572,-0.0369369499385,0.0,0.0,0.0
1574069805482492463,128,1574069805481885406,base_link,0.0299658644944,0.0618268735707,-0.0372764021158,0.0,0.0,0.0
1574069805762135911,129,1574069805761889911,base_link,0.0203539822251,0.108276724815,-0.0180107206106,0.0,0.0,0.0
1574069806047431339,130,1574069806046976418,base_link,0.0621676184237,0.0902791470289,0.0999237298965,0.0,0.0,0.0
1574069806352201423,131,1574069806352000527,base_link,0.0494429320097,0.102622516453,0.100533001125,0.0,0.0,0.0
1574069806622139562,132,1574069806621682728,base_link,0.0932100713253,0.128075450659,0.2063459903,0.0,0.0,0.0
1574069806905459851,133,1574069806905277903,base_link,0.0899168401957,0.110782712698,0.172538399696,0.0,0.0,0.0
1574069807214439772,134,1574069807214164888,base_link,-0.00468000723049,0.0489804148674,0.188302397728,0.0,0.0,0.0
1574069807497322980,135,1574069807496929225,base_link,-0.0327071100473,0.0502284877002,0.220984473825,0.0,0.0,0.0
1574069807762577611,136,1574069807762271639,base_link,-0.0634669139981,0.0447614267468,0.195593222976,0.0,0.0,0.0
1574069808043284762,137,1574069808042848576,base_link,-0.074755191803,0.00979382544756,0.194816619158,0.0,0.0,0.0
1574069808314423617,138,1574069808314189572,base_link,-0.054343033582,0.00505461450666,0.110135801136,0.0,0.0,0.0
1574069808636387425,139,1574069808635983795,base_link,-0.0334575995803,-0.0014120163396,0.0189775954932,0.0,0.0,0.0
1574069808872597253,140,1574069808872330607,base_link,0.00518929446116,0.0230372920632,0.0344451665878,0.0,0.0,0.0
1574069809158739680,141,1574069809158290758,base_link,0.0355715528131,0.0115494458005,0.0544243380427,0.0,0.0,0.0
1574069809431886764,142,1574069809431647979,base_link,0.0547328591347,-0.0198737606406,0.022769799456,0.0,0.0,0.0
1574069809712940392,143,1574069809712464305,base_link,0.00634490745142,-0.0360399857163,0.0140292542055,0.0,0.0,0.0
1574069809972700726,144,1574069809972440938,base_link,-0.0198815874755,-0.0433694161475,-0.00235474528745,0.0,0.0,0.0
1574069810293538061,145,1574069810293252347,base_link,0.0133304242045,-0.00124454312027,-0.0446809530258,0.0,0.0,0.0
1574069810590739479,146,1574069810590283302,base_link,0.0627049207687,0.0119730196893,-0.0175571274012,0.0,0.0,0.0
1574069810853207490,147,1574069810852868410,base_link,0.0666040629148,0.038322031498,-0.0666379630566,0.0,0.0,0.0
1574069811159968490,148,1574069811159555660,base_link,0.10686185956,0.0639114230871,-0.0516037680209,0.0,0.0,0.0
1574069811441689541,149,1574069811441366845,base_link,0.145467191935,0.0591136030853,-0.0206073336303,0.0,0.0,0.0
1574069811687495150,150,1574069811687108651,base_link,0.157281860709,0.0623815245926,-0.00668668467551,0.0,0.0,0.0
1574069811981742216,151,1574069811981510235,base_link,0.147657424212,0.115198142827,0.084714256227,0.0,0.0,0.0
1574069812268772820,152,1574069812268237544,base_link,0.10987662524,0.146315142512,0.0882804244757,0.0,0.0,0.0
1574069812536424020,153,1574069812536168662,base_link,0.0787319168448,0.159457102418,0.117513552308,0.0,0.0,0.0
1574069812813849976,154,1574069812813428951,base_link,0.0181620325893,0.117128558457,0.0968580543995,0.0,0.0,0.0
1574069813092801594,155,1574069813092476352,base_link,-0.0293735526502,0.0958863422275,0.114406943321,0.0,0.0,0.0
1574069813408502149,156,1574069813408243567,base_link,-0.0358635932207,0.0753766074777,0.152365475893,0.0,0.0,0.0
1574069813747374717,157,1574069813746904288,base_link,0.054103191942,0.0795390307903,0.0701300650835,0.0,0.0,0.0
1574069813990705370,158,1574069813990451577,base_link,0.0374853052199,0.0652783513069,0.0389494374394,0.0,0.0,0.0
1574069814258773677,159,1574069814258337601,base_link,-0.0153438029811,0.0602539256215,0.130988031626,0.0,0.0,0.0
1574069814531636640,160,1574069814531333013,base_link,-0.00866354256868,0.041718903929,0.0539725273848,0.0,0.0,0.0
1574069814848101530,161,1574069814847585248,base_link,0.0628660023212,0.0920450165868,1.13141722977e-05,0.0,0.0,0.0
1574069815093086605,162,1574069815092896987,base_link,0.0318798832595,0.0581720657647,0.0225663073361,0.0,0.0,0.0
1574069815353507145,163,1574069815353126808,base_link,0.00841272249818,0.0411795638502,0.0532542765141,0.0,0.0,0.0
1574069815613562070,164,1574069815613296167,base_link,-0.0135843558237,0.0568760186434,0.0280002374202,0.0,0.0,0.0
1574069815874461110,165,1574069815874039611,base_link,-0.00789969228208,0.0466634184122,-0.00626538367942,0.0,0.0,0.0
1574069816139171870,166,1574069816138954041,base_link,0.0318830572069,-0.0048153270036,-0.0461233332753,0.0,0.0,0.0
1574069816393827521,167,1574069816393352169,base_link,0.0881666764617,-0.0545425638556,-0.0877376571298,0.0,0.0,0.0
1574069816684589887,168,1574069816684469243,base_link,0.114449627697,-0.0252086166292,-0.00938424095511,0.0,0.0,0.0
1574069816934569126,169,1574069816934240760,base_link,0.148137927055,0.0233823675662,0.0199481584132,0.0,0.0,0.0
1574069817192457498,170,1574069817192146256,base_link,0.157218843699,0.031804125756,0.0590590499341,0.0,0.0,0.0
1574069817484541811,171,1574069817484094229,base_link,0.167108356953,0.0224813595414,0.027766847983,0.0,0.0,0.0
1574069817733473870,172,1574069817733147684,base_link,0.136576890945,-0.0901819169521,-0.00575612857938,0.0,0.0,0.0
1574069817989867509,173,1574069817989621990,base_link,0.195051774383,-0.177341327071,-0.0328328236938,0.0,0.0,0.0
1574069818256116180,174,1574069818255644223,base_link,0.126000881195,-0.122477583587,-0.0474665276706,0.0,0.0,0.0
1574069818536642528,175,1574069818536377750,base_link,0.041277743876,-0.0321509577334,0.000814025988802,0.0,0.0,0.0
1574069818804861604,176,1574069818804412453,base_link,-0.0129917850718,-0.00978804565966,-0.0145099740475,0.0,0.0,0.0
1574069819056957909,177,1574069819056717571,base_link,-0.0575304180384,-0.0238759052008,-0.0130642913282,0.0,0.0,0.0
1574069819313396402,178,1574069819313014520,base_link,-0.0160249341279,-0.0698849931359,-0.021858451888,0.0,0.0,0.0
1574069819615129293,179,1574069819614795094,base_link,0.0389131866395,-0.171442046762,-0.0419191494584,0.0,0.0,0.0
1574069819901699254,180,1574069819901318034,base_link,0.0796599239111,-0.278310894966,-0.00287610292435,0.0,0.0,0.0
1574069820161553327,181,1574069820161256933,base_link,0.0513713993132,-0.261228263378,-0.0138986138627,0.0,0.0,0.0
1574069820434508379,182,1574069820434092829,base_link,0.0385302044451,-0.119330190122,-0.05482808128,0.0,0.0,0.0
1574069820689531076,183,1574069820689277926,base_link,-0.00870097707957,-0.0752279087901,-0.0417015887797,0.0,0.0,0.0
1574069820940521457,184,1574069820940082979,base_link,-0.0231827795506,-0.147653996944,-0.026458285749,0.0,0.0,0.0
1574069821199889576,185,1574069821199717310,base_link,0.0225715078413,-0.277049988508,-0.059427715838,0.0,0.0,0.0
1574069821460788464,186,1574069821460380897,base_link,0.00889620836824,-0.339982092381,-0.0360246933997,0.0,0.0,0.0
1574069821718399645,187,1574069821718109519,base_link,-0.0295513998717,-0.253978431225,-0.0371576584876,0.0,0.0,0.0
1574069821977376709,188,1574069821976927605,base_link,-0.0644864737988,-0.141621664166,-0.069183126092,0.0,0.0,0.0
1574069822285128841,189,1574069822284769382,base_link,-0.0746638774872,-0.142630293965,-0.066324070096,0.0,0.0,0.0
1574069822560282535,190,1574069822559976032,base_link,-0.0899611264467,-0.204171210527,-0.0354127883911,0.0,0.0,0.0
1574069822813693709,191,1574069822813480380,base_link,-0.121072307229,-0.201904475689,-0.0520876944065,0.0,0.0,0.0
1574069823054705085,192,1574069823054298072,base_link,-0.161280095577,-0.113401278853,-0.0741066709161,0.0,0.0,0.0
1574069823320241718,193,1574069823320027086,base_link,-0.185429036617,0.0183316655457,-0.060670606792,0.0,0.0,0.0
1574069823597286765,194,1574069823597071923,base_link,-0.222892642021,0.0773176923394,-0.0633917376399,0.0,0.0,0.0
1574069823853245409,195,1574069823853009802,base_link,-0.210660070181,0.102920427918,-0.0853138491511,0.0,0.0,0.0
1574069824121808090,196,1574069824121089468,base_link,-0.225003674626,0.143914923072,-0.0867609754205,0.0,0.0,0.0
1574069824374643151,197,1574069824374348085,base_link,-0.208872452378,0.156938701868,-0.112425394356,0.0,0.0,0.0
1574069824633988081,198,1574069824633616508,base_link,-0.14017085731,0.139513373375,-0.0964437946677,0.0,0.0,0.0
1574069824928381703,199,1574069824927977515,base_link,-0.111310772598,0.0962363705039,-0.0984351709485,0.0,0.0,0.0
1574069825171660556,200,1574069825171535755,base_link,-0.0847755819559,0.0640662387013,-0.117046572268,0.0,0.0,0.0
1574069825463884722,201,1574069825463481036,base_link,-0.0691339448094,0.04367159307,-0.115872196853,0.0,0.0,0.0
1574069825712009383,202,1574069825711777548,base_link,-0.0638663768768,0.0800231322646,-0.136460721493,0.0,0.0,0.0
1574069825975995805,203,1574069825975693693,base_link,-0.016750831157,0.113192670047,-0.142561212182,0.0,0.0,0.0
1574069826232306479,204,1574069826232083937,base_link,-0.0135134505108,0.160292252898,-0.123736470938,0.0,0.0,0.0
1574069826493588404,205,1574069826493148096,base_link,0.00868172198534,0.122255817056,-0.158019408584,0.0,0.0,0.0
1574069826760900976,206,1574069826760723176,base_link,0.00946290977299,0.0609893761575,-0.149069860578,0.0,0.0,0.0
1574069827037017901,207,1574069827036651709,base_link,0.051435790956,0.0161855742335,-0.15330798924,0.0,0.0,0.0
1574069827339411276,208,1574069827339117193,base_link,0.130236119032,0.0239326115698,-0.164826154709,0.0,0.0,0.0
1574069827564447190,209,1574069827564033583,base_link,0.127512276173,-0.00483781192452,-0.169242724776,0.0,0.0,0.0
1574069827812217862,210,1574069827811905957,base_link,0.107182838023,-0.00646781409159,-0.190021634102,0.0,0.0,0.0
1574069828077467681,211,1574069828077034059,base_link,0.0677424669266,-0.00533769559115,-0.176846042275,0.0,0.0,0.0
1574069828368811387,212,1574069828368538569,base_link,0.0228037387133,0.00507043953985,-0.191026255488,0.0,0.0,0.0
1574069828631321476,213,1574069828630902471,base_link,0.0145532898605,0.00864256452769,-0.224821820855,0.0,0.0,0.0
1574069828871953918,214,1574069828871701761,base_link,0.0203130412847,0.00622573681176,-0.23277439177,0.0,0.0,0.0
1574069829133066375,215,1574069829132671760,base_link,0.0293572898954,-0.00934091303498,-0.241520732641,0.0,0.0,0.0
1574069829394879700,216,1574069829394565903,base_link,0.123911999166,0.0454219840467,-0.246731683612,0.0,0.0,0.0
1574069829653667335,217,1574069829653081898,base_link,0.280361711979,0.0763145908713,-0.274931579828,0.0,0.0,0.0
1574069829914618955,218,1574069829914314180,base_link,0.393145442009,0.0545383356512,-0.298162698746,0.0,0.0,0.0
1574069830202304340,219,1574069830202061692,base_link,0.374607592821,0.036825671792,-0.249022573233,0.0,0.0,0.0
1574069830471054723,220,1574069830470537908,base_link,0.28586807847,0.0589533559978,-0.260982185602,0.0,0.0,0.0
1574069830733236191,221,1574069830733065920,base_link,0.173089683056,0.130511596799,-0.238495960832,0.0,0.0,0.0
1574069831001843328,222,1574069831001377305,base_link,0.0737947076559,0.127471789718,-0.220613196492,0.0,0.0,0.0
1574069831289141403,223,1574069831288825264,base_link,0.0781030580401,0.134769931436,-0.244670212269,0.0,0.0,0.0
1574069831535570040,224,1574069831535082135,base_link,0.0553204119205,0.119974881411,-0.230237424374,0.0,0.0,0.0
1574069831819824850,225,1574069831819557769,base_link,0.0344344638288,0.0969225093722,-0.225610896945,0.0,0.0,0.0
1574069832105121932,226,1574069832104670174,base_link,0.00959896482527,0.0595595166087,-0.199172750115,0.0,0.0,0.0
1574069832374404677,227,1574069832374095998,base_link,0.0227205138654,0.0323735959828,-0.200764447451,0.0,0.0,0.0
1574069832656366217,228,1574069832655969406,base_link,0.0769197791815,0.0121305240318,-0.181956261396,0.0,0.0,0.0
1574069832890051441,229,1574069832889735024,base_link,0.109443508089,-0.0135042313486,-0.191010668874,0.0,0.0,0.0
1574069833155334491,230,1574069833154857571,base_link,0.06523694098,-0.0236284174025,-0.17832608521,0.0,0.0,0.0
1574069833421800421,231,1574069833421551368,base_link,0.0299994517118,0.0142553290352,-0.170935213566,0.0,0.0,0.0
1574069833702048962,232,1574069833701539171,base_link,-0.0290029123425,0.0492193587124,-0.169084593654,0.0,0.0,0.0
1574069833964704124,233,1574069833964424948,base_link,-0.0616273097694,0.062173590064,-0.187971517444,0.0,0.0,0.0
1574069834260759256,234,1574069834260295561,base_link,-0.0875941514969,0.0465823635459,-0.185265004635,0.0,0.0,0.0
1574069834519286667,235,1574069834518781879,base_link,-0.0798467770219,0.038056422025,-0.188524827361,0.0,0.0,0.0
1574069834810562496,236,1574069834810337338,base_link,-0.0792066529393,0.0449731722474,-0.183644145727,0.0,0.0,0.0
1574069835027256143,237,1574069835026853444,base_link,-0.0781813636422,0.0450663082302,-0.180500358343,0.0,0.0,0.0
1574069835276467488,238,1574069835275952504,base_link,-0.0657498314977,0.0442893728614,-0.177366837859,0.0,0.0,0.0
1574069835537274068,239,1574069835536954831,base_link,-0.0815490335226,0.0435204356909,-0.18746727705,0.0,0.0,0.0
1574069835796147120,240,1574069835795930325,base_link,-0.120509579778,0.0582841299474,-0.181238174438,0.0,0.0,0.0
1574069836075366496,241,1574069836074971971,base_link,-0.121813967824,0.0735617205501,-0.185111612082,0.0,0.0,0.0
1574069836321313503,242,1574069836321061366,base_link,-0.105883672833,0.0700448527932,-0.166201800108,0.0,0.0,0.0
1574069836575820274,243,1574069836575415396,base_link,-0.0791488736868,0.0622169114649,-0.157648742199,0.0,0.0,0.0
1574069836836721438,244,1574069836836486655,base_link,-0.0507742650807,0.0514274537563,-0.152621150017,0.0,0.0,0.0
1574069837129810588,245,1574069837129429304,base_link,-0.0625844150782,0.0308725163341,-0.156378030777,0.0,0.0,0.0
1574069837422608609,246,1574069837422346560,base_link,-0.0585052855313,0.0284884553403,-0.176842272282,0.0,0.0,0.0
1574069837655265116,247,1574069837654778168,base_link,-0.0769641771913,0.0187493823469,-0.156840443611,0.0,0.0,0.0
1574069837912802354,248,1574069837912511487,base_link,-0.104910217226,0.00428097229451,-0.166500538588,0.0,0.0,0.0
1574069838157465722,249,1574069838157027551,base_link,-0.102913953364,-0.0240178052336,-0.15678216517,0.0,0.0,0.0
1574069838413550520,250,1574069838413315900,base_link,-0.11790676415,-0.0305707938969,-0.153555199504,0.0,0.0,0.0
1574069838679652674,251,1574069838679178999,base_link,-0.113425590098,-0.0358529277146,-0.146992310882,0.0,0.0,0.0
1574069838942297517,252,1574069838941965183,base_link,-0.094884686172,-0.037275634706,-0.135513141751,0.0,0.0,0.0
1574069839200069852,253,1574069839199619498,base_link,-0.0701274946332,-0.0345408655703,-0.154221445322,0.0,0.0,0.0
1574069839452110830,254,1574069839451923609,base_link,-0.0542157031596,-0.0277683101594,-0.159329488873,0.0,0.0,0.0
1574069839720460105,255,1574069839719913049,base_link,-0.0827081203461,-0.0198697596788,-0.153683051467,0.0,0.0,0.0
1574069840004111105,256,1574069840003859610,base_link,-0.0979691892862,0.013286835514,-0.139321431518,0.0,0.0,0.0
1574069840296933931,257,1574069840296456000,base_link,-0.0791238844395,0.0548791736364,-0.16084100306,0.0,0.0,0.0
1574069840565547467,258,1574069840565308491,base_link,-0.0746033638716,0.0772883594036,-0.164184227586,0.0,0.0,0.0
1574069840831074350,259,1574069840830624347,base_link,-0.0674259662628,0.074006550014,-0.167099669576,0.0,0.0,0.0
1574069841091306893,260,1574069841091044963,base_link,-0.1032884866,0.0779785513878,-0.142308264971,0.0,0.0,0.0
1574069841353758317,261,1574069841353297527,base_link,-0.0968531668186,0.12651258707,-0.166781827807,0.0,0.0,0.0
1574069841619468648,262,1574069841619275932,base_link,-0.101596601307,0.0828582942486,-0.182263568044,0.0,0.0,0.0
1574069841876781642,263,1574069841876543966,base_link,-0.129546374083,0.0502163730562,-0.195257410407,0.0,0.0,0.0
1574069842136245274,264,1574069842135997510,base_link,-0.167542651296,0.0538665354252,-0.19008871913,0.0,0.0,0.0
1574069842408455807,265,1574069842405847413,base_link,-0.12728844583,0.0479807443917,-0.182643577456,0.0,0.0,0.0
1574069842685969840,266,1574069842685541672,base_link,-0.0797508656979,0.021862892434,-0.203938528895,0.0,0.0,0.0
1574069842991212618,267,1574069842990993243,base_link,-0.102637283504,-0.0330853201449,-0.168965697289,0.0,0.0,0.0
1574069843234298846,268,1574069843233776993,base_link,-0.0584086254239,0.00263489899226,-0.217612192035,0.0,0.0,0.0
1574069843512486363,269,1574069843512199728,base_link,-0.079025991261,0.0111300526187,-0.207369834185,0.0,0.0,0.0
1574069843793586078,270,1574069843793159034,base_link,-0.0745963007212,0.0167543981224,-0.202038913965,0.0,0.0,0.0
1574069844067808285,271,1574069844067507771,base_link,-0.0932767018676,0.00746443355456,-0.217444509268,0.0,0.0,0.0
1574069844315643113,272,1574069844315241792,base_link,-0.0776199251413,0.0179686490446,-0.274269610643,0.0,0.0,0.0
1574069844648965148,273,1574069844648631843,base_link,-0.102779068053,0.0243476647884,-0.307230085135,0.0,0.0,0.0
1574069844848568925,274,1574069844848116241,base_link,-0.130186423659,0.0341401062906,-0.373475432396,0.0,0.0,0.0
1574069845101577466,275,1574069845101340742,base_link,-0.093169927597,0.0614723339677,-0.498633354902,0.0,0.0,0.0
1574069845357661093,276,1574069845357138978,base_link,-0.0412005595863,0.0829584673047,-0.584526777267,0.0,0.0,0.0
1574069845613959831,277,1574069845613611099,base_link,-0.0895577073097,0.0866862609982,-0.630023956299,0.0,0.0,0.0
1574069845928438961,278,1574069845928056262,base_link,-0.0166928526014,0.0937109738588,-0.551856935024,0.0,0.0,0.0
1574069846180360316,279,1574069846180115501,base_link,-0.0234133079648,0.0807706266642,-0.499534457922,0.0,0.0,0.0
1574069846439661646,280,1574069846439260010,base_link,-0.034635335207,0.0693805515766,-0.363888084888,0.0,0.0,0.0
1574069846673217787,281,1574069846672991478,base_link,-0.03896721825,0.0627792179585,-0.301136404276,0.0,0.0,0.0
1574069846914235727,282,1574069846913740630,base_link,-0.0655916556716,0.0665220320225,-0.374672293663,0.0,0.0,0.0
1574069847153649201,283,1574069847153393838,base_link,-0.0758523643017,0.0710975527763,-0.517358243465,0.0,0.0,0.0
1574069847393427633,284,1574069847393067157,base_link,-0.0477234311402,0.0720751285553,-0.60076546669,0.0,0.0,0.0
1574069847633878197,285,1574069847633588653,base_link,-0.0608709454536,0.0904445201159,-0.556469917297,0.0,0.0,0.0
1574069847874290703,286,1574069847873742931,base_link,-0.0596921779215,0.102313265204,-0.524158000946,0.0,0.0,0.0
1574069848113043153,287,1574069848112791578,base_link,-0.10708348453,0.0904074311256,-0.524759471416,0.0,0.0,0.0
1574069848353820080,288,1574069848353450077,base_link,-0.108792491257,0.0347375795245,-0.489968299866,0.0,0.0,0.0
1574069848592080951,289,1574069848591901181,base_link,-0.0995785593987,0.0406160913408,-0.39249804616,0.0,0.0,0.0
1574069848833538388,290,1574069848833336075,base_link,-0.0326058603823,0.0910822749138,-0.284163951874,0.0,0.0,0.0
1574069849073625845,291,1574069849073187423,base_link,0.0437659658492,0.101250961423,-0.219016879797,0.0,0.0,0.0
1574069849313865109,292,1574069849313544867,base_link,0.0443852357566,0.207583099604,-0.171773210168,0.0,0.0,0.0
1574069849553115924,293,1574069849552726386,base_link,0.0652625784278,0.233174726367,-0.151791483164,0.0,0.0,0.0
1574069849791808362,294,1574069849791579267,base_link,0.0871266201138,0.247782111168,-0.142311051488,0.0,0.0,0.0
1574069850035578666,295,1574069850035132873,base_link,0.109085805714,0.234334647655,-0.130890920758,0.0,0.0,0.0
1574069850273676916,296,1574069850273332772,base_link,0.139455020428,0.205152601004,-0.121341444552,0.0,0.0,0.0
1574069850512725851,297,1574069850512489918,base_link,0.159638613462,0.19048795104,-0.114377476275,0.0,0.0,0.0
1574069850753870256,298,1574069850753554516,base_link,0.177331656218,0.180511519313,-0.106306254864,0.0,0.0,0.0
1574069850992840346,299,1574069850992670680,base_link,0.181782618165,0.179983258247,-0.0996880754828,0.0,0.0,0.0
1574069851231545932,300,1574069851231336429,base_link,0.181444615126,0.188428491354,-0.0909674316645,0.0,0.0,0.0
1574069851473149951,301,1574069851472916340,base_link,0.182723164558,0.187791958451,-0.0836577862501,0.0,0.0,0.0
1574069851713814249,302,1574069851713373496,base_link,0.175483450294,0.174522429705,-0.0776895955205,0.0,0.0,0.0
1574069851953315474,303,1574069851953084156,base_link,0.172311261296,0.164915323257,-0.0722485482693,0.0,0.0,0.0
1574069852193348042,304,1574069852192878630,base_link,0.173338100314,0.15384671092,-0.0690473467112,0.0,0.0,0.0
1574069852433495461,305,1574069852433333740,base_link,0.180959686637,0.148674830794,-0.0648146420717,0.0,0.0,0.0
1574069852673133107,306,1574069852672783240,base_link,0.174912557006,0.137833416462,-0.0604080632329,0.0,0.0,0.0
1574069852912136250,307,1574069852911852866,base_link,0.172012761235,0.127849757671,-0.0604405999184,0.0,0.0,0.0
1574069853153821984,308,1574069853153347393,base_link,0.169028639793,0.121579058468,-0.0598723143339,0.0,0.0,0.0
1574069853393747077,309,1574069853393347741,base_link,0.156123563647,0.11781077832,-0.0579759255052,0.0,0.0,0.0
1574069853632298090,310,1574069853632033236,base_link,0.144262433052,0.116187818348,-0.057324193418,0.0,0.0,0.0
1574069853874003489,311,1574069853873532867,base_link,0.13377264142,0.123994730413,-0.0581222400069,0.0,0.0,0.0
1574069854112525789,312,1574069854112349770,base_link,0.116344675422,0.126843377948,-0.0590631142259,0.0,0.0,0.0
1574069854353966390,313,1574069854353485294,base_link,0.0990419015288,0.117555834353,-0.0597642436624,0.0,0.0,0.0
1574069854591960086,314,1574069854591746533,base_link,0.0821346491575,0.106109127402,-0.0602468252182,0.0,0.0,0.0
1574069854832810160,315,1574069854832421786,base_link,0.0670500025153,0.103241227567,-0.0611167885363,0.0,0.0,0.0
1574069855073123374,316,1574069855072904008,base_link,0.0573197677732,0.102892361581,-0.0614588111639,0.0,0.0,0.0
1574069855314148816,317,1574069855313631067,base_link,0.0403131172061,0.100871838629,-0.0628828033805,0.0,0.0,0.0
1574069855553678476,318,1574069855553401504,base_link,0.0299927312881,0.0933189690113,-0.065632596612,0.0,0.0,0.0
1574069855793205502,319,1574069855792790138,base_link,0.0238477196544,0.0772123634815,-0.067536778748,0.0,0.0,0.0
1574069856032609189,320,1574069856032345831,base_link,0.0244678966701,0.0631864145398,-0.0723570808768,0.0,0.0,0.0
1574069856273572714,321,1574069856273139246,base_link,0.0286828167737,0.0433390885592,-0.077855527401,0.0,0.0,0.0
1574069856513061450,322,1574069856512753631,base_link,0.0243066176772,0.0239027738571,-0.0824394077063,0.0,0.0,0.0
1574069856759216194,323,1574069856758763204,base_link,0.0125400573015,0.00201793154702,-0.085634931922,0.0,0.0,0.0
1574069856992386575,324,1574069856992060218,base_link,0.00148727092892,-0.0154922762886,-0.0914422869682,0.0,0.0,0.0
1574069857234071552,325,1574069857233632788,base_link,-0.00142188288737,-0.0187564082444,-0.097759000957,0.0,0.0,0.0
1574069857472579121,326,1574069857472324454,base_link,-0.00288177211769,-0.0101230069995,-0.100460790098,0.0,0.0,0.0
1574069857713433093,327,1574069857713030713,base_link,-0.0132808806375,-0.00448404438794,-0.103888370097,0.0,0.0,0.0
1574069857952751983,328,1574069857952514969,base_link,-0.0222808755934,0.00245839729905,-0.106079787016,0.0,0.0,0.0
1574069858193470167,329,1574069858193093870,base_link,-0.0232302006334,0.00578884826973,-0.109579779208,0.0,0.0,0.0
1574069858432982965,330,1574069858432721040,base_link,-0.022654986009,0.00568137969822,-0.112203173339,0.0,0.0,0.0
1574069858672994264,331,1574069858672606091,base_link,-0.0253240484744,0.00750330556184,-0.112524740398,0.0,0.0,0.0
1574069858912174372,332,1574069858911871825,base_link,-0.0287631247193,0.00834276620299,-0.114948056638,0.0,0.0,0.0
1574069859152358828,333,1574069859151973384,base_link,-0.026256583631,-0.00185681181028,-0.11609172076,0.0,0.0,0.0
1574069859392612721,334,1574069859392352591,base_link,-0.0267897546291,-0.0255883280188,-0.117768958211,0.0,0.0,0.0
1574069859633391211,335,1574069859632915891,base_link,-0.0263238698244,-0.0413274951279,-0.120122894645,0.0,0.0,0.0
1574069859871436800,336,1574069859871206191,base_link,-0.0266288481653,-0.0557827912271,-0.120050758123,0.0,0.0,0.0
1574069860113574265,337,1574069860113169308,base_link,-0.0325930342078,-0.075844116509,-0.122146144509,0.0,0.0,0.0
1574069860353064198,338,1574069860352898575,base_link,-0.0376127064228,-0.0914007276297,-0.123630195856,0.0,0.0,0.0
1574069860592805030,339,1574069860592420751,base_link,-0.0408660396934,-0.0983689948916,-0.123487256467,0.0,0.0,0.0
1574069860831244120,340,1574069860830999229,base_link,-0.0388696715236,-0.0944633185863,-0.120551913977,0.0,0.0,0.0
1574069861073104540,341,1574069861072646273,base_link,-0.0348980203271,-0.0896893143654,-0.119468033314,0.0,0.0,0.0
1574069861311433699,342,1574069861311240845,base_link,-0.0387426652014,-0.0874262303114,-0.120049893856,0.0,0.0,0.0
1574069861552848674,343,1574069861552609226,base_link,-0.0407881289721,-0.077465005219,-0.117047935724,0.0,0.0,0.0
1574069861792924418,344,1574069861792675282,base_link,-0.0409328490496,-0.0703501328826,-0.11391095072,0.0,0.0,0.0
1574069862033716289,345,1574069862033275473,base_link,-0.0412535965443,-0.0651824548841,-0.112012624741,0.0,0.0,0.0
1574069862272105397,346,1574069862271903080,base_link,-0.0440600700676,-0.0595429353416,-0.111141912639,0.0,0.0,0.0
1574069862513349355,347,1574069862512989472,base_link,-0.0537151135504,-0.0466637723148,-0.108995243907,0.0,0.0,0.0
1574069862752361474,348,1574069862752155153,base_link,-0.0594621822238,-0.0272398218513,-0.106075070798,0.0,0.0,0.0
1574069862993351068,349,1574069862992993163,base_link,-0.0593219324946,-0.0124558825046,-0.104803018272,0.0,0.0,0.0
1574069863232627543,350,1574069863232432293,base_link,-0.0631320849061,0.000995893613435,-0.101454712451,0.0,0.0,0.0
1574069863472533068,351,1574069863472132425,base_link,-0.0635562986135,0.0062507535331,-0.097461566329,0.0,0.0,0.0
1574069863711832613,352,1574069863711550578,base_link,-0.0695844441652,0.0122313071042,-0.0928212329745,0.0,0.0,0.0
1574069863953432247,353,1574069863953018346,base_link,-0.0742603838444,0.0192027781159,-0.0888550058007,0.0,0.0,0.0
1574069864191259079,354,1574069864191064201,base_link,-0.0769870281219,0.0187070518732,-0.0849659591913,0.0,0.0,0.0
1574069864433523303,355,1574069864433296531,base_link,-0.0799068063498,0.0077927489765,-0.0793423578143,0.0,0.0,0.0
1574069864675279969,356,1574069864675024803,base_link,-0.0863595977426,0.00176037254278,-0.0763823464513,0.0,0.0,0.0
1574069864911403125,357,1574069864911248813,base_link,-0.0799774900079,-0.00458475900814,-0.0761528238654,0.0,0.0,0.0
