%time,field.header.seq,field.header.stamp,field.header.frame_id,field.pose.position.x,field.pose.position.y,field.pose.position.z,field.pose.orientation.x,field.pose.orientation.y,field.pose.orientation.z,field.pose.orientation.w
1574069785712957881,0,1574069785712742836,map,-0.553047657013,3.18225049973,-0.863592863083,-0.00762118484202,-0.00468710425595,-0.234685298668,-0.972030225448
1574069785953079330,1,1574069785952704773,map,-0.528660297394,3.11952161789,-0.881651878357,-0.00784475057036,-0.00450288658007,-0.234648046319,-0.972038311107
1574069786193029716,2,1574069786192777145,map,-0.517265796661,3.03704595566,-0.897155761719,-0.00812040129026,-0.0042727984564,-0.234578753277,-0.972053810644
1574069786436739249,3,1574069786436379125,map,-0.505855083466,2.99125289917,-0.908192396164,-0.00840423157,-0.00401012163431,-0.234530372136,-0.972064191482
1574069786673411261,4,1574069786673173222,map,-0.479903697968,2.98811817169,-0.916147232056,-0.00848870438633,-0.0038940964752,-0.234552424653,-0.972058608315
1574069786913499941,5,1574069786913132463,map,-0.456182956696,2.99155235291,-0.9314930439,-0.00841163517399,-0.00383170561874,-0.234527380689,-0.972065568845
1574069787152777056,6,1574069787152272004,map,-0.439661502838,3.00884103775,-0.947969913483,-0.00825910729944,-0.00383209051658,-0.234504787148,-0.97207232603
1574069787393805007,7,1574069787393422648,map,-0.422655582428,2.99549722672,-0.960315704346,-0.00813195429701,-0.00378735645852,-0.234542563664,-0.972064459324
1574069787636350230,8,1574069787636076753,map,-0.394902706146,2.93595743179,-0.966193914413,-0.00816699775454,-0.00369788800433,-0.234511614253,-0.972071977043
1574069787876167692,9,1574069787875732097,map,-0.384650707245,2.86764764786,-0.972998857498,-0.0083858521853,-0.00361989864289,-0.234486903425,-0.972076368368
1574069788113187697,10,1574069788112958588,map,-0.365975856781,2.84956264496,-0.978034973145,-0.00854835033375,-0.0035275356847,-0.234472696634,-0.972078719411
1574069788354773817,11,1574069788354338323,map,-0.345016002655,2.86327886581,-0.981565237045,-0.00849511963175,-0.00350270244315,-0.234469065859,-0.97208015162
1574069788593359167,12,1574069788593095599,map,-0.325778484344,2.87174224854,-0.979526758194,-0.0082645899616,-0.00350230774711,-0.234504769373,-0.972073527844
1574069788833569797,13,1574069788833199200,map,-0.308845043182,2.87033510208,-0.986785411835,-0.00812328660595,-0.00348570895163,-0.234479732115,-0.972080818284
1574069789072854029,14,1574069789072666270,map,-0.289493083954,2.8682513237,-0.99546957016,-0.00802101956136,-0.00342572050478,-0.234410079542,-0.972098679298
1574069789313586019,15,1574069789313167484,map,-0.263808727264,2.84585571289,-0.995669603348,-0.00793956671215,-0.00342457221577,-0.234367084072,-0.972109718853
1574069789555230077,16,1574069789554959277,map,-0.234778881073,2.81148290634,-0.994208812714,-0.0079684654531,-0.00342358995051,-0.234343992724,-0.972115052689
1574069789792876134,17,1574069789792456877,map,-0.209600448608,2.79605007172,-0.998376607895,-0.00803530119973,-0.00345038720001,-0.234341745308,-0.972114949566
1574069790036211339,18,1574069790035945911,map,-0.192202568054,2.77526903152,-0.999324083328,-0.00804206308249,-0.00351291209473,-0.234355292835,-0.972111403796
1574069790273364143,19,1574069790273011778,map,-0.177440643311,2.72700023651,-0.997310161591,-0.00805416003972,-0.00345665375328,-0.234282440288,-0.97212906562
1574069790512681819,20,1574069790512409504,map,-0.143303871155,2.71402740479,-0.997075796127,-0.00807725577618,-0.00344693641684,-0.234232549537,-0.972140930784
1574069790752240974,21,1574069790752043660,map,-0.119800567627,2.706199646,-0.997776031494,-0.00800928122994,-0.00351224533395,-0.234238058332,-0.972139932096
1574069790992821513,22,1574069790992592200,map,-0.107394695282,2.70743703842,-1.00338101387,-0.00794749619645,-0.00354084768992,-0.23423057683,-0.972142138054
1574069791234542657,23,1574069791234131396,map,-0.0945625305176,2.71700668335,-1.00830507278,-0.00781388878349,-0.00354939568599,-0.234218229502,-0.972146164885
1574069791471519175,24,1574069791471369709,map,-0.0694470405579,2.69447946548,-1.00244235992,-0.00770449882175,-0.00354860280753,-0.23425803222,-0.972137450393
1574069791713723182,25,1574069791713299035,map,-0.0467414855957,2.66254520416,-0.997560977936,-0.00772775838844,-0.00358798500251,-0.234247788523,-0.972139589609
1574069791952178767,26,1574069791951876863,map,-0.021665096283,2.61710357666,-0.996549367905,-0.00777064253799,-0.00362070393617,-0.234299287822,-0.972126715683
1574069792193370594,27,1574069792193045727,map,0.00496244430542,2.5641002655,-0.996847629547,-0.00787661796634,-0.00363575091728,-0.234295686148,-0.972126674697
1574069792433494172,28,1574069792433272599,map,0.0258364677429,2.51294231415,-0.9936876297,-0.00794548163987,-0.0036479243209,-0.23429448426,-0.972126358358
1574069792674456590,29,1574069792674010095,map,0.0463099479675,2.45338153839,-0.984147310257,-0.00800572528969,-0.00369625721243,-0.234350321613,-0.972112222331
1574069792913283748,30,1574069792912179005,map,0.0686492919922,2.39873170853,-0.97843503952,-0.00808970757858,-0.00372429680689,-0.234308031591,-0.972121614088
1574069793152521706,31,1574069793152163309,map,0.0875129699707,2.34587907791,-0.973052978516,-0.00813311152656,-0.00369442043082,-0.234315435934,-0.972119581244
1574069793393046746,32,1574069793392849025,map,0.117243289948,2.31555366516,-0.964756250381,-0.00811001742792,-0.00375135581999,-0.234292096242,-0.972125181541
1574069793642278198,33,1574069793642069782,map,0.144791603088,2.27455759048,-0.952034235001,-0.00808366595217,-0.0038448327718,-0.234283941494,-0.97212700115
1574069793913648298,34,1574069793913261224,map,0.0231213569641,-0.112913608551,0.0277915000916,-0.00816495802619,-0.00388108706011,-0.234311678081,-0.972119492726
1574069794213222015,35,1574069794212810935,map,0.0530962944031,-0.233201503754,0.0478956699371,-0.00838500056766,-0.00384707158761,-0.234311191108,-0.972117872239
1574069794532507703,36,1574069794532269838,map,0.08589220047,-0.293656349182,0.0693790912628,-0.00849732124295,-0.00382429922669,-0.234254974259,-0.972130535115
1574069794793606404,37,1574069794793198661,map,0.12467622757,-0.332818508148,0.0796785354614,-0.00838761279655,-0.00386677440161,-0.234259013419,-0.972130346527
1574069795072893069,38,1574069795072660999,map,0.169528007507,-0.353395462036,0.0877492427826,-0.00824044099266,-0.00393925290673,-0.234299279492,-0.972121610216
1574069795353723509,39,1574069795353487221,map,0.216604232788,-0.362050056458,0.0972239971161,-0.00806705025041,-0.00406808238623,-0.23433790474,-0.97211322376
1574069795688407167,40,1574069795688026709,map,0.263695716858,-0.412758350372,0.119837760925,-0.00793514420745,-0.00412817096484,-0.234344465149,-0.972112474637
1574069795916776612,41,1574069795916562090,map,0.304055690765,-0.479115009308,0.129967689514,-0.00798768196371,-0.00413352352784,-0.234398376508,-0.972099023768
1574069796200829834,42,1574069796200448921,map,0.346764564514,-0.55276632309,0.133882522583,-0.00807631119516,-0.00409754759836,-0.234541683421,-0.972063877551
1574069796482102589,43,1574069796481953435,map,0.40184879303,-0.677478313446,0.147634029388,-0.00821965153497,-0.00410197819542,-0.234523818229,-0.972066967748
1574069796754566571,44,1574069796754249371,map,0.452451229095,-0.807791233063,0.161304712296,-0.00848567865496,-0.00409781294048,-0.234568054864,-0.972054025672
1574069797034833370,45,1574069797034535703,map,0.49858045578,-0.946056842804,0.171406269073,-0.00866286144734,-0.00414453297768,-0.234649426552,-0.97203262512
1574069797339680347,46,1574069797339537429,map,0.52739572525,-1.09354734421,0.186124324799,-0.00886091478134,-0.00407030620033,-0.234715097515,-0.972015298128
1574069797614959825,47,1574069797614636803,map,0.523246765137,-1.21324872971,0.204846143723,-0.00881692820427,-0.00397786254477,-0.234753442839,-0.972006820687
1574069797894808240,48,1574069797894548650,map,0.544364452362,-1.30457448959,0.216463327408,-0.00875536017927,-0.00387531475499,-0.234768729061,-0.972004099507
1574069798173875644,49,1574069798173446944,map,0.58385848999,-1.39121103287,0.218978881836,-0.00866059265596,-0.00392433044367,-0.234847002443,-0.971985843111
1574069798434508706,50,1574069798434260813,map,0.632650375366,-1.4649643898,0.217086553574,-0.00866059265596,-0.00392433044367,-0.234847002443,-0.971985843111
1574069798697491147,51,1574069798697091925,map,0.709968566895,-1.4914355278,0.21747803688,-0.00860816875625,-0.00404082401923,-0.234969892689,-0.971956131058
1574069799003179318,52,1574069799002947792,map,0.797792434692,-1.53899431229,0.212622880936,-0.00842046303949,-0.00423146703027,-0.235043377577,-0.971939196219
1574069799271946565,53,1574069799271769656,map,0.88018321991,-1.57751893997,0.210500001907,-0.00825616599358,-0.00441202566608,-0.235179817924,-0.971906797483
1574069799557902025,54,1574069799557535300,map,0.952318191528,-1.59630537033,0.206295251846,-0.0081703927239,-0.00457323554892,-0.235230739316,-0.971894453879
1574069799835449985,55,1574069799835260472,map,1.0280456543,-1.60043382645,0.196295499802,-0.00798797470978,-0.00461803117659,-0.23532988402,-0.971871756836
1574069800133544639,56,1574069800133135899,map,1.08748722076,-1.59591054916,0.182893037796,-0.0078335845129,-0.00446332993932,-0.235476655408,-0.971838185295
1574069800431053517,57,1574069800430839940,map,1.19157123566,-1.60311460495,0.16956114769,-0.00723053304562,-0.00648044408705,-0.235594279321,-0.971802993815
1574069800696878366,58,1574069800696484420,map,1.30255365372,-1.62452459335,0.167003393173,-0.00738295566395,-0.00539757728895,-0.235701508935,-0.971782463729
1574069800973010606,59,1574069800972580309,map,1.40746498108,-1.64061403275,0.161436080933,-0.00748802908976,-0.00463270506069,-0.235464633318,-0.971843029465
1574069801294687889,60,1574069801294475193,map,1.4743514061,-1.6534743309,0.157100200653,-0.00775700069821,-0.00330421623025,-0.235321511273,-0.971881009912
1574069801554507785,61,1574069801553896042,map,1.52688121796,-1.68825769424,0.161999940872,-0.00754536638174,-0.00364996128693,-0.235185979283,-0.971914245383
1574069801832613185,62,1574069801832429809,map,1.56538295746,-1.70605707169,0.170669794083,-0.00729700413177,-0.00441727481496,-0.235295705759,-0.971886398848
1574069802133890522,63,1574069802133497271,map,1.63642835617,-1.72590494156,0.177448511124,-0.00640620720717,-0.00862619536697,-0.235091916041,-0.971913751459
1574069802412101914,64,1574069802411895132,map,1.67291545868,-1.72770643234,0.185823202133,-0.00626771766078,-0.0081829010016,-0.234293348008,-0.972111301717
1574069802694024508,65,1574069802693564524,map,1.7241692543,-1.71002912521,0.192037582397,-0.00606674699867,-0.00882763160455,-0.234577059018,-0.972038513066
1574069802972380646,66,1574069802972103780,map,1.75354909897,-1.68310880661,0.1965944767,-0.00609945919659,-0.00782076546417,-0.234535701739,-0.972056910286
1574069803234792699,67,1574069803234351092,map,1.75980901718,-1.65109300613,0.189723014832,-0.00591697391761,-0.00790394286434,-0.235076152337,-0.971926807794
1574069803516159509,68,1574069803515781783,map,1.74995708466,-1.63026762009,0.18562078476,-0.00550313922877,-0.00806869710608,-0.235202170979,-0.971897397029
1574069803832548803,69,1574069803832359977,map,1.76587152481,-1.61360311508,0.171518325806,-0.00580709052264,-0.00669650920228,-0.235010319318,-0.971952459886
1574069804118043599,70,1574069804117601133,map,1.83535718918,-1.57404470444,0.155454397202,-0.00577436108685,-0.00755526764448,-0.235082262431,-0.971928960663
1574069804388290531,71,1574069804388021614,map,1.86326646805,-1.5526509285,0.146318912506,-0.00589643748489,-0.00891169218152,-0.235730081454,-0.971759817272
1574069804654165207,72,1574069804653633111,map,1.85499048233,-1.5566239357,0.153846740723,-0.0061245597249,-0.00860655103869,-0.235574901442,-0.971798787228
1574069804932325605,73,1574069804932194123,map,1.87849903107,-1.56302022934,0.151581048965,-0.00673175470366,-0.00801501526684,-0.236667482263,-0.971534325615
1574069805198432655,74,1574069805198153211,map,1.90649032593,-1.55631113052,0.151658535004,-0.0066178505604,-0.00899101002759,-0.236387519772,-0.971594723271
1574069805482380186,75,1574069805481885406,map,1.94710016251,-1.52895689011,0.151596307755,-0.00710323858945,-0.00890292836062,-0.236709774306,-0.97151364613
1574069805762120718,76,1574069805761889911,map,2.0264954567,-1.47903299332,0.139585256577,-0.00671225297086,-0.00743441634533,-0.236773043685,-0.971513356006
1574069806047411973,77,1574069806046976418,map,2.11340045929,-1.40629911423,0.143625020981,-0.000415564429263,-0.0225683803407,-0.228243198825,-0.973342456541
1574069806352199939,78,1574069806352000527,map,2.22096157074,-1.33322095871,0.161438941956,-0.00867545386127,-0.000239199076288,-0.21668628344,-0.976202711455
1574069806622150501,79,1574069806621682728,map,2.299077034,-1.28484106064,0.211056232452,-0.0023350281109,-0.000506116273326,-0.216192741563,-0.976347781267
1574069806905449587,80,1574069806905277903,map,2.32480716705,-1.30014181137,0.270692110062,-0.00195619016172,-0.00313568650636,-0.21628155972,-0.976324038276
1574069807214430003,81,1574069807214164888,map,2.24626207352,-1.41500234604,0.327633857727,-0.00433311394222,-0.00379123171675,-0.213430078822,-0.976941375999
1574069807497326579,82,1574069807496929225,map,2.19649600983,-1.45521593094,0.393529415131,-0.00433311394222,-0.00379123171675,-0.213430078822,-0.976941375999
1574069807762556021,83,1574069807762271639,map,2.15981245041,-1.47039556503,0.454332113266,0.00249119029115,-0.00268433278608,-0.217615967559,-0.976027601552
1574069808043284988,84,1574069808042848576,map,2.13337898254,-1.49183607101,0.511230230331,0.000795174595476,0.00204736141789,-0.21681060168,-0.976211216391
1574069808314417945,85,1574069808314189572,map,2.16094923019,-1.47560358047,0.533500671387,7.10764097557e-06,0.00767599386885,-0.212299931409,-0.977174405207
1574069808636402517,86,1574069808635983795,map,2.25933408737,-1.45531511307,0.536859273911,-0.00298468246807,0.0138648894747,-0.190941299098,-0.981498994808
1574069808872566340,87,1574069808872330607,map,2.32902193069,-1.42655611038,0.538537740707,-0.00463672204223,0.0112583239413,-0.153434960862,-0.98808373316
1574069809158745201,88,1574069809158290758,map,2.4246840477,-1.42404699326,0.542735815048,-0.00663398689846,0.0121879423922,-0.149507138633,-0.988663269155
1574069809431812553,89,1574069809431647979,map,2.51487064362,-1.46934652328,0.562334775925,-0.00684176884398,0.0258494117212,-0.170589705732,-0.98497926395
1574069809712904721,90,1574069809712464305,map,2.52175474167,-1.56355237961,0.585033893585,-0.0100569261726,0.0310829873938,-0.180569227845,-0.983019562413
1574069809972685097,91,1574069809972440938,map,2.53328132629,-1.58195066452,0.592163801193,-0.0146341874351,0.0317435772785,-0.175316134059,-0.983891477247
1574069810293543436,92,1574069810293252347,map,2.62500715256,-1.5013461113,0.596633434296,-0.0145315461435,0.0368866660026,-0.174914669113,-0.983785071328
1574069810590721604,93,1574069810590283302,map,2.76376247406,-1.4442076683,0.606128692627,-0.014220742593,0.0385663264167,-0.159592257562,-0.986326883073
1574069810853139288,94,1574069810852868410,map,2.86627388,-1.41970300674,0.612637519836,-0.0138986922484,0.0363527403308,-0.160011607019,-0.986347601124
1574069811159971377,95,1574069811159555660,map,2.98084449768,-1.3811879158,0.620645046234,-0.0142562330079,0.0425979633556,-0.173919241051,-0.983734858044
1574069811441601259,96,1574069811441366845,map,3.11477851868,-1.34664773941,0.655957221985,-0.0126668601638,0.0346045868953,-0.190720482005,-0.980952481501
1574069811687479449,97,1574069811687108651,map,3.20011806488,-1.31404829025,0.695043563843,-0.0149811008729,0.0251458070382,-0.195751427894,-0.980216625794
1574069811981741266,98,1574069811981510235,map,3.23063325882,-1.20404863358,0.766550779343,-0.013131670821,0.0177979686856,-0.193617993517,-0.980827642412
1574069812268727007,99,1574069812268237544,map,3.22775554657,-1.10343694687,0.839848041534,-0.00812753412629,0.00265540249957,-0.195413588385,-0.980683650063
1574069812536422885,100,1574069812536168662,map,3.21744680405,-1.04355859756,0.919650554657,-0.00300778145486,-0.014804584543,-0.199403376639,-0.979801036391
1574069812813814081,101,1574069812813428951,map,3.17053127289,-1.0668129921,1.00966262817,0.002050097347,-0.011277202344,-0.205084214257,-0.978677212809
1574069813092795505,102,1574069813092476352,map,3.13925170898,-1.07189702988,1.09600138664,0.00348776286888,-0.0124084341498,-0.204319669974,-0.978819359603
1574069813408480355,103,1574069813408243567,map,3.14667081833,-1.05434846878,1.19415044785,0.0203650120104,-0.0224120111557,-0.196632048949,-0.980009594528
1574069813747279937,104,1574069813746904288,map,3.26308298111,-1.02099847794,1.28018796444,0.0160675815809,0.00292289438568,-0.206373818014,-0.978336923942
1574069813990696318,105,1574069813990451577,map,3.38903331757,-0.98310136795,1.33009517193,0.0294254576876,0.00760221688974,-0.197891757225,-0.979752622431
1574069814258725995,106,1574069814258337601,map,3.51660728455,-0.949479579926,1.3810864687,0.0294254576876,0.00760221688974,-0.197891757225,-0.979752622431
1574069814531613389,107,1574069814531333013,map,3.62217497826,-0.927444934845,1.45616650581,0.0333627941662,-0.01681226374,-0.183327228819,-0.982341793332
1574069814848088386,108,1574069814847585248,map,3.6384677887,-0.927381038666,1.51756799221,0.0200849681712,-0.0171227279767,-0.176941698549,-0.983867390228
1574069815093075053,109,1574069815092896987,map,3.64411687851,-0.91548204422,1.55259943008,0.00162205822928,-0.0488724073163,-0.170677755376,-0.984112778369
1574069815353471741,110,1574069815353126808,map,3.65132689476,-0.920783519745,1.60330677032,0.0139621130015,-0.03564318473,-0.152139969513,-0.98761736136
1574069815613581346,111,1574069815613296167,map,3.66148686409,-0.919741153717,1.66203606129,0.00970595818077,-0.0336438942254,-0.17447201689,-0.984039327507
1574069815874441001,112,1574069815874039611,map,3.6405646801,-0.880359172821,1.70973348618,0.0142128634784,-0.00292439044642,-0.173122829671,-0.98479334294
1574069816139168120,113,1574069816138954041,map,3.64440369606,-0.868015766144,1.74302744865,0.0180267480698,-0.00450018069221,-0.174861704575,-0.984417680155
1574069816393802804,114,1574069816393352169,map,3.65878033638,-0.882154941559,1.75504541397,0.0211859651557,-0.00776243163043,-0.182896823183,-0.982873161504
1574069816684574369,115,1574069816684469243,map,3.68427491188,-0.909030437469,1.75994575024,0.035173987889,-0.026816495867,-0.194810319051,-0.97984315363
1574069816934574905,116,1574069816934240760,map,3.71564483643,-0.930166721344,1.77987766266,0.0332834951579,-0.0322546054295,-0.203139257513,-0.978052294837
1574069817192461890,117,1574069817192146256,map,3.75257897377,-0.94798707962,1.80692028999,0.0317472296116,-0.0134450940009,-0.19295038918,-0.980602615831
1574069817484515391,118,1574069817484094229,map,3.79263806343,-0.972759723663,1.84151446819,0.0312256678455,-0.00344021755916,-0.182944950355,-0.98262112114
1574069817733441388,119,1574069817733147684,map,3.82081842422,-1.01863527298,1.86026835442,0.030950935333,-0.00321309159624,-0.170350020559,-0.984892169803
1574069817989848290,120,1574069817989621990,map,3.84559011459,-1.10907030106,1.86952412128,0.0296360854231,-0.00777596768171,-0.171040809563,-0.984787427941
1574069818256059770,121,1574069818255644223,map,3.88244557381,-1.20014810562,1.87108075619,0.0290197348658,-0.00605922585924,-0.181521848249,-0.982939957158
1574069818536635709,122,1574069818536377750,map,3.90134954453,-1.25307893753,1.87194156647,0.0353075586181,-0.0176948293417,-0.189312819101,-0.981122278742
1574069818804807645,123,1574069818804412453,map,3.90188884735,-1.27595853806,1.87395572662,0.0360919383097,-0.0204770756872,-0.19810101534,-0.979302838289
1574069819056956462,124,1574069819056717571,map,3.87420105934,-1.29077768326,1.87707185745,0.0297270611279,-0.0152864272189,-0.1924972022,-0.980728022504
1574069819313371987,125,1574069819313014520,map,3.83399105072,-1.30276346207,1.87744724751,0.0178966277097,-0.0115538739843,-0.196363640428,-0.980299719183
1574069819615083874,126,1574069819614795094,map,3.82742404938,-1.32894659042,1.8754594326,0.00954463320468,-0.0217669671559,-0.202420675985,-0.979010198645
1574069819901638283,127,1574069819901318034,map,3.86346364021,-1.38490629196,1.87177217007,0.0054500428555,-0.0232778600532,-0.212777617908,-0.976808130383
1574069820161467943,128,1574069820161256933,map,3.878439188,-1.43233633041,1.87224674225,0.0070012090661,-0.0241577343435,-0.225117332253,-0.974006967974
1574069820434517130,129,1574069820434092829,map,3.87536692619,-1.4339261055,1.87931144238,0.0181659342035,-0.0178911886518,-0.234023071696,-0.971896654031
1574069820689528491,130,1574069820689277926,map,3.85794472694,-1.42906904221,1.88101923466,0.0179060805852,-0.0239643583451,-0.239532641344,-0.970427326253
1574069820940505034,131,1574069820940082979,map,3.80840873718,-1.42794370651,1.87502586842,0.00404375207089,-0.0311595624017,-0.23983804518,-0.970304303724
1574069821199889534,132,1574069821199717310,map,3.80586576462,-1.48843336105,1.85324454308,-0.0195318679798,-0.029915963377,-0.247989042362,-0.968103804422
1574069821460773162,133,1574069821460380897,map,3.80532336235,-1.59896802902,1.84033548832,-0.0379581358799,-0.0251724901853,-0.257269043499,-0.965265851937
1574069821718379431,134,1574069821718109519,map,3.79737925529,-1.71026468277,1.82285821438,-0.0504253061241,-0.0276013563731,-0.254052003944,-0.965480726333
1574069821977309260,135,1574069821976927605,map,3.79332065582,-1.78215932846,1.805367589,-0.0539849703903,-0.031814077029,-0.243321649962,-0.96791945023
1574069822284987750,136,1574069822284769382,map,3.7905189991,-1.82544279099,1.79284954071,-0.0628460963393,-0.030240295456,-0.228046698923,-0.97114911101
1574069822560273461,137,1574069822559976032,map,3.8002102375,-1.87586355209,1.77891230583,-0.0580775624102,-0.0350821122914,-0.231766930546,-0.970402149651
1574069822813677375,138,1574069822813480380,map,3.77635407448,-1.91001272202,1.76760327816,-0.0338432566093,-0.0263700469452,-0.241148191938,-0.96953948044
1574069823054670866,139,1574069823054298072,map,3.71823000908,-1.90805864334,1.74626588821,0.00200791954353,-0.0214270926332,-0.252457231222,-0.967368696188
1574069823320236304,140,1574069823320027086,map,3.65915727615,-1.83649969101,1.71975016594,0.0280588145751,-0.0197519046984,-0.263632827759,-0.964012602259
1574069823597286476,141,1574069823597071923,map,3.62810587883,-1.75679445267,1.70635461807,0.0314299847722,-0.0239802951248,-0.263703874185,-0.963793218612
1574069823853217328,142,1574069823853009802,map,3.60920333862,-1.69742155075,1.67876517773,0.0136973780321,-0.0190561199678,-0.256372378514,-0.966293148926
1574069824121773633,143,1574069824121089468,map,3.57159757614,-1.63900709152,1.65235841274,-0.000666592619655,-0.0221283930752,-0.248933574164,-0.968267507215
1574069824374646371,144,1574069824374348085,map,3.51143312454,-1.57574605942,1.63140308857,-0.0025478447146,-0.0217446683904,-0.241652643586,-0.970115806351
1574069824633867174,145,1574069824633616508,map,3.48849916458,-1.5205540657,1.61428022385,-0.00198492685945,-0.0257044444368,-0.241340872771,-0.970097894406
1574069824928368798,146,1574069824927977515,map,3.47226572037,-1.52985715866,1.60107052326,-0.00183926370393,-0.0377160203819,-0.241981154064,-0.969545893701
1574069825171649488,147,1574069825171535755,map,3.42885303497,-1.57568597794,1.57508230209,-0.00228231419907,-0.0403643872174,-0.246565958222,-0.968282363535
1574069825463864489,148,1574069825463481036,map,3.41776657104,-1.59029245377,1.54758882523,0.00225301508995,-0.0548283052723,-0.251902205926,-0.966195663162
1574069825711988767,149,1574069825711777548,map,3.45301008224,-1.58216905594,1.51152098179,0.00907687012489,-0.0561572610896,-0.248289533015,-0.967014105508
1574069825975982640,150,1574069825975693693,map,3.53064107895,-1.59370565414,1.46998035908,0.0161635225986,-0.0552478920184,-0.246554065979,-0.967417956994
1574069826232269900,151,1574069826232083937,map,3.59942293167,-1.58593130112,1.43598854542,0.0135245220902,-0.0611762831603,-0.247358608113,-0.966896203671
1574069826493508801,152,1574069826493148096,map,3.67790293694,-1.5747590065,1.40850758553,0.012765070105,-0.0642859779527,-0.240933031045,-0.968326205664
1574069826760895790,153,1574069826760723176,map,3.73559880257,-1.60399770737,1.36851167679,0.00204652706746,-0.0619732478116,-0.244398395664,-0.96769031848
1574069827037005244,154,1574069827036651709,map,3.79613447189,-1.63379526138,1.32879149914,-0.00306828854497,-0.0674235131107,-0.242257411776,-0.967861561343
1574069827339408519,155,1574069827339117193,map,3.92146039009,-1.62235212326,1.2789927721,-0.00592498604987,-0.0628466511456,-0.243916751212,-0.967739536992
1574069827564462993,156,1574069827564033583,map,3.98553347588,-1.62599802017,1.24754536152,0.00149356768204,-0.0530576544853,-0.246083229761,-0.967794243931
1574069827812157378,157,1574069827811905957,map,4.02767753601,-1.6633887291,1.21000361443,0.00764377183166,-0.0393094119124,-0.249440074055,-0.967561880369
1574069828077489297,158,1574069828077034059,map,4.07332706451,-1.70185422897,1.17103040218,0.00648706389096,-0.0334865890743,-0.259472297388,-0.965148016235
1574069828368794002,159,1574069828368538569,map,4.13351154327,-1.72311639786,1.11806893349,-0.000852952735893,-0.0228774076239,-0.272302021132,-0.961939450267
1574069828631309122,160,1574069828630902471,map,4.16374206543,-1.71425199509,1.08363771439,0.000224123302435,-0.00826383098825,-0.265513212906,-0.964071777742
1574069828871941915,161,1574069828871701761,map,4.18912315369,-1.74264192581,1.04172754288,0.00442697200517,-0.00784562705796,-0.252900309016,-0.967450402736
1574069829133014623,162,1574069829132671760,map,4.18665981293,-1.79116487503,0.996899604797,0.00476498534185,-0.00929618974635,-0.246263133128,-0.969146709757
1574069829394871784,163,1574069829394565903,map,4.22329330444,-1.77216005325,0.964377164841,0.0049127841106,-0.0141713683351,-0.25078404586,-0.967926856335
1574069829653474984,164,1574069829653081898,map,4.33801364899,-1.75404024124,0.94015455246,0.0056089237208,-0.023661838209,-0.250148029493,-0.967902175185
1574069829914596524,165,1574069829914314180,map,4.46460008621,-1.72905683517,0.911374807358,0.0031889444606,-0.0345099065949,-0.248779720506,-0.967939847121
1574069830202300046,166,1574069830202061692,map,4.57819366455,-1.69189882278,0.892757415771,0.00689470576126,-0.045993797549,-0.242951828449,-0.968922825963
1574069830470976063,167,1574069830470537908,map,4.63015127182,-1.63915109634,0.890376806259,0.0174951002606,-0.057171782566,-0.238670511216,-0.969258322544
1574069830733236255,168,1574069830733065920,map,4.64695358276,-1.56818246841,0.890017032623,0.0198530971627,-0.058502578049,-0.240223927398,-0.968749589729
1574069831001779533,169,1574069831001377305,map,4.62823295593,-1.50579881668,0.906528949738,0.0201309009717,-0.0627143962321,-0.236701009892,-0.969347349121
1574069831289141217,170,1574069831288825264,map,4.59391689301,-1.47820425034,0.922870397568,0.0159677535116,-0.0661131610558,-0.240344991338,-0.968301794856
1574069831535494662,171,1574069831535082135,map,4.56933498383,-1.4565615654,0.932193994522,0.0167438109003,-0.0750348069747,-0.239451667895,-0.96785965991
1574069831819760410,172,1574069831819557769,map,4.53387260437,-1.44471025467,0.946621179581,0.018698143889,-0.0834288459593,-0.237254650064,-0.967677755299
1574069832105104405,173,1574069832104670174,map,4.5286989212,-1.47882318497,0.954545974731,0.0212612334088,-0.0862932962164,-0.235054750622,-0.967910476848
1574069832374310947,174,1574069832374095998,map,4.53449344635,-1.53375673294,0.951204061508,0.0216052867341,-0.0846956121878,-0.232651306341,-0.968624403223
1574069832656343097,175,1574069832655969406,map,4.54046201706,-1.56679487228,0.96279335022,0.0197634567662,-0.083193453706,-0.229842330273,-0.969464160375
1574069832890042090,176,1574069832889735024,map,4.58108329773,-1.58986139297,0.967037916183,0.0208256947297,-0.08128820943,-0.227309007838,-0.970200562978
1574069833155315355,177,1574069833154857571,map,4.61137580872,-1.60899972916,0.96876001358,0.0248605096074,-0.0678862840385,-0.233483924613,-0.969669358312
1574069833421800062,178,1574069833421551368,map,4.60534858704,-1.60755681992,0.976382493973,0.0284142335452,-0.053648962112,-0.240258842508,-0.968808602766
1574069833701993217,179,1574069833701539171,map,4.58696746826,-1.56579351425,0.980110406876,0.0269057044215,-0.0463629730996,-0.23341088777,-0.970899539224
1574069833964667417,180,1574069833964424948,map,4.57788085938,-1.51718759537,0.974783420563,0.0205791927537,-0.0476433586735,-0.226356621656,-0.972660931174
1574069834260621520,181,1574069834260295561,map,4.57139778137,-1.47495126724,0.973821401596,0.0186114137179,-0.0464186559865,-0.22913937219,-0.972108055603
1574069834519283686,182,1574069834518781879,map,4.5685377121,-1.45172739029,0.976355791092,0.0201446810931,-0.0468045751245,-0.230475819276,-0.971742980577
1574069834810560396,183,1574069834810337338,map,4.567902565,-1.42583227158,0.973559856415,0.0208029785883,-0.0523654304131,-0.230941486944,-0.971334714394
1574069835027254418,184,1574069835026853444,map,4.56002187729,-1.41566324234,0.973590135574,0.0210697135873,-0.0551844690125,-0.229002806405,-0.971631852199
1574069835276283614,185,1574069835275952504,map,4.55323982239,-1.40091180801,0.9764149189,0.0217368733613,-0.0559819957579,-0.226715536709,-0.972107807757
1574069835537280065,186,1574069835536954831,map,4.53995227814,-1.38672018051,0.977272748947,0.0239446502928,-0.0605643145397,-0.227784223035,-0.971531247703
1574069835796138477,187,1574069835795930325,map,4.50104999542,-1.35493040085,0.979875087738,0.0262486704604,-0.0675654394566,-0.224707420243,-0.971726553089
1574069836075379437,188,1574069836074971971,map,4.47672700882,-1.33673334122,0.985778808594,0.0252679262291,-0.0694203705852,-0.220946499816,-0.972483926999
1574069836321317338,189,1574069836321061366,map,4.47206115723,-1.32938909531,0.993067502975,0.024502622869,-0.0715829454498,-0.221359381576,-0.972252810529
1574069836575795579,190,1574069836575415396,map,4.48318004608,-1.33350133896,1.00511884689,0.0228687372585,-0.0682467577875,-0.22569067697,-0.971536473446
1574069836836700506,191,1574069836836486655,map,4.48532915115,-1.32946443558,1.01037740707,0.0245620458468,-0.0618816787478,-0.226056609078,-0.971836289316
1574069837129798141,192,1574069837129429304,map,4.46892261505,-1.3278632164,1.00499725342,0.0257243585907,-0.0596570077731,-0.224059677552,-0.97240760985
1574069837422566712,193,1574069837422346560,map,4.43621969223,-1.34229135513,1.00172519684,0.0268576493375,-0.0557463514708,-0.221318410384,-0.973236442081
1574069837655169390,194,1574069837654778168,map,4.40832138062,-1.34635591507,1.00484657288,0.0295317250732,-0.0607584047294,-0.223511675509,-0.972357354258
1574069837912793987,195,1574069837912511487,map,4.36546802521,-1.37344121933,1.00782155991,0.031460896764,-0.0606309043385,-0.226428285326,-0.971629732469
1574069838157442747,196,1574069838157027551,map,4.33267498016,-1.39624261856,1.01235389709,0.0362194771468,-0.0597574126903,-0.226188330704,-0.97157400138
1574069838413543854,197,1574069838413315900,map,4.31712341309,-1.42566919327,1.02757430077,0.0349024563484,-0.0595614059238,-0.231559116415,-0.970368297643
1574069838679610193,198,1574069838679178999,map,4.30071926117,-1.44548082352,1.04249191284,0.0343474751371,-0.0569990449574,-0.230849842909,-0.97071093012
1574069838942287189,199,1574069838941965183,map,4.28470134735,-1.46060037613,1.05580830574,0.0303409906338,-0.0515996758438,-0.23681508899,-0.969708982823
1574069839200068281,200,1574069839199619498,map,4.25497198105,-1.47854566574,1.06246185303,0.025485923249,-0.0468299874295,-0.248748310475,-0.967099631904
1574069839452085638,201,1574069839451923609,map,4.22152137756,-1.47696065903,1.06627345085,0.0249428219126,-0.0455020573057,-0.254075487123,-0.965791419127
1574069839720344700,202,1574069839719913049,map,4.18694782257,-1.47574186325,1.07068490982,0.0259572217849,-0.0449854155603,-0.255299288702,-0.965466109303
1574069840004083341,203,1574069840003859610,map,4.1444311142,-1.47365999222,1.08105301857,0.0245706713911,-0.0411569684634,-0.256751588222,-0.965288044057
1574069840296882588,204,1574069840296456000,map,4.10902309418,-1.45896482468,1.093354702,0.0229077538573,-0.0355314669721,-0.264597640211,-0.963431802705
1574069840565522274,205,1574069840565308491,map,4.09119319916,-1.41902494431,1.10407114029,0.0278316046396,-0.0293789325666,-0.269430855487,-0.962169056983
1574069840831060472,206,1574069840830624347,map,4.07917785645,-1.40016698837,1.11022925377,0.0354060615783,-0.0254693144675,-0.254212598829,-0.96616441635
1574069841091297318,207,1574069841091044963,map,4.07978630066,-1.39620733261,1.11212849617,0.0317057144793,-0.0266147063853,-0.246311087023,-0.968306384097
1574069841353734990,208,1574069841353297527,map,4.08236598969,-1.38685560226,1.11259531975,0.0317057144793,-0.0266147063853,-0.246311087023,-0.968306384097
1574069841619426483,209,1574069841619275932,map,4.08679008484,-1.36987352371,1.11116671562,0.0280402481822,-0.0251430563356,-0.241261235777,-0.969729130898
1574069841876770727,210,1574069841876543966,map,4.0730676651,-1.3506770134,1.10333800316,0.026725604727,-0.0318989620395,-0.238693239434,-0.970202935329
1574069842136238417,211,1574069842135997510,map,4.0188035965,-1.33711385727,1.08456277847,0.0216992085969,-0.0398590779222,-0.237410455768,-0.97034873821
1574069842408442308,212,1574069842405847413,map,3.97423768044,-1.33192682266,1.07435846329,0.0235023925711,-0.0472628800708,-0.232150724513,-0.971246569528
1574069842685981957,213,1574069842685541672,map,3.95855259895,-1.30825471878,1.05968904495,0.0274639278289,-0.0557454463777,-0.233984663413,-0.970252212141
1574069842991215378,214,1574069842990993243,map,3.94860863686,-1.30114030838,1.03741765022,0.0285653328106,-0.0580011048724,-0.232635071885,-0.970412704433
1574069843234305392,215,1574069843233776993,map,3.93531632423,-1.30347394943,1.01903676987,0.0336519827236,-0.0563417659069,-0.227289653318,-0.971613381427
1574069843512455463,216,1574069843512199728,map,3.90385198593,-1.30453538895,1.00132918358,0.0375120494257,-0.0746542210995,-0.217520277801,-0.972473404349
1574069843793473401,217,1574069843793159034,map,3.88127732277,-1.33146333694,0.978491783142,0.0378358581768,-0.0824792648591,-0.21354002695,-0.97271078723
1574069844067799816,218,1574069844067507771,map,3.86550855637,-1.33326101303,0.962899923325,0.0257687504841,-0.0668084682632,-0.215824194045,-0.973803120416
1574069844315623688,219,1574069844315241792,map,3.86133027077,-1.32256364822,0.928364276886,0.0229190377585,-0.054628248864,-0.215251351672,-0.974760138566
1574069844648938542,220,1574069844648631843,map,3.86351060867,-1.30831098557,0.886585474014,0.0224428173998,-0.0592495083933,-0.216386955052,-0.974249712028
1574069844848535197,221,1574069844848116241,map,3.84180760384,-1.27360963821,0.840286254883,0.0194819764811,-0.0381541049158,-0.213722009475,-0.975954722073
1574069845101575238,222,1574069845101340742,map,3.81438851357,-1.23593091965,0.764719486237,0.0108880865192,-0.0264440856712,-0.207122094219,-0.977897028317
1574069845357631481,223,1574069845357138978,map,3.79217195511,-1.18771314621,0.655228614807,0.00667543424656,-0.0149255567089,-0.202170576625,-0.979213829703
1574069845613838161,224,1574069845613611099,map,3.77474617958,-1.16276407242,0.53440952301,0.00803940920618,-0.00263988334192,-0.202929154803,-0.979156860287
1574069845928365518,225,1574069845928056262,map,3.78065228462,-1.16143274307,0.403073787689,-0.00093608711862,0.0256021290502,-0.2005063266,-0.979357374875
1574069846180360911,226,1574069846180115501,map,3.78772091866,-1.13930559158,0.298049926758,-0.00414829597227,0.0315226794642,-0.199571390724,-0.979367332682
1574069846439651764,227,1574069846439260010,map,3.77073097229,-1.13479089737,0.226023674011,-0.00750449688561,0.0412441369296,-0.20096108127,-0.978701817466
1574069846673210155,228,1574069846672991478,map,3.73709011078,-1.12236070633,0.189353942871,-0.00512444988761,0.0484371960769,-0.195508598537,-0.979491687534
1574069846914222452,229,1574069846913740630,map,3.71770262718,-1.12416887283,0.13995552063,-0.00408309335549,0.0586486329477,-0.193650437512,-0.979307497293
1574069847153614595,230,1574069847153393838,map,3.71830534935,-1.1165060997,0.0627653598785,-0.00809729722441,0.0743937572526,-0.193325484066,-0.978276678589
1574069847393407971,231,1574069847393067157,map,3.72606611252,-1.09343957901,-0.0478646755219,-0.00934385490146,0.0561730771693,-0.193140233305,-0.979517293393
1574069847633878191,232,1574069847633588653,map,3.73209452629,-1.0728354454,-0.168139696121,-0.0166194037429,0.0639196219768,-0.187343874597,-0.980071604525
1574069847874298516,233,1574069847873742931,map,3.7411878109,-1.05577898026,-0.269520282745,-0.0191564976879,0.0517383856302,-0.186254890308,-0.980951213815
1574069848113025103,234,1574069848112791578,map,3.72331953049,-1.04611635208,-0.36429977417,-0.0219121273566,0.0424497588594,-0.184662204748,-0.981640334738
1574069848353751395,235,1574069848353450077,map,3.72560477257,-1.05391740799,-0.445820808411,-0.0211322166207,0.0424074684854,-0.183728025758,-0.981834532184
1574069848592074962,236,1574069848591901181,map,3.76962733269,-1.01793527603,-0.514736413956,-0.0154049785213,0.0264461131567,-0.180909585876,-0.98302340332
1574069848833530949,237,1574069848833336075,map,3.83304929733,-0.921178340912,-0.557257890701,-0.00738013434826,0.0158562232626,-0.183471389546,-0.982869453701
1574069849073597255,238,1574069849073187423,map,3.92374324799,-0.80083322525,-0.569668292999,-0.0075468080155,0.00894568392296,-0.17843884993,-0.983881393901
1574069849313822597,239,1574069849313544867,map,4.00832271576,-0.649564266205,-0.557021856308,-0.00913765037916,-0.00154575319911,-0.174374036048,-0.984635876629
1574069849553076552,240,1574069849552726386,map,4.08132839203,-0.512030124664,-0.535864114761,-0.00594096155631,-0.0065593730329,-0.170846159174,-0.985257971039
1574069849791781220,241,1574069849791579267,map,4.14401626587,-0.434806346893,-0.508936166763,-0.00631341299362,-0.00649847994493,-0.170696469045,-0.985282003302
1574069850035566224,242,1574069850035132873,map,4.223528862,-0.410968780518,-0.479239463806,-0.00639231166139,-0.00733036047383,-0.170036975571,-0.985389684899
1574069850273634108,243,1574069850273332772,map,4.30913066864,-0.43782043457,-0.450687408447,-0.00674763156003,-0.00769502877138,-0.169545693914,-0.985469184539
1574069850512716357,244,1574069850512489918,map,4.38137531281,-0.444080352783,-0.423687934875,-0.00713273037545,-0.00733130262268,-0.169041188725,-0.985555910476
1574069850753822188,245,1574069850753554516,map,4.46137523651,-0.435022354126,-0.394034862518,-0.00734173070517,-0.00724522258522,-0.16849812724,-0.985648003527
1574069850992840038,246,1574069850992670680,map,4.51626348495,-0.405336856842,-0.365087985992,-0.00734976390506,-0.00764049589909,-0.168003858764,-0.985729327571
1574069851231546735,247,1574069851231336429,map,4.54929256439,-0.356815338135,-0.342328071594,-0.00731497391634,-0.00765055364793,-0.167699771515,-0.985781287517
1574069851473137852,248,1574069851472916340,map,4.58858394623,-0.323257446289,-0.315355062485,-0.00730599910845,-0.00724481847369,-0.167345690918,-0.985844589534
1574069851713738443,249,1574069851713373496,map,4.61942481995,-0.312882423401,-0.288097381592,-0.0073299012455,-0.00712918827274,-0.166948151834,-0.985912654256
1574069851953305956,250,1574069851953084156,map,4.65400409698,-0.30057477951,-0.262736320496,-0.00740253222538,-0.00728779997193,-0.166507209675,-0.98598551694
1574069852193292307,251,1574069852192878630,map,4.69095611572,-0.292471408844,-0.24174952507,-0.00752417132505,-0.00714822553133,-0.166157121563,-0.986044674785
1574069852433486468,252,1574069852433333740,map,4.74724721909,-0.273662567139,-0.21800160408,-0.0076645093595,-0.00690655210618,-0.165760164734,-0.986112124772
1574069852673095384,253,1574069852672783240,map,4.78099632263,-0.264934062958,-0.192855358124,-0.00771381125113,-0.00693192075589,-0.165321891233,-0.986185133669
1574069852912122079,254,1574069852911852866,map,4.81849956512,-0.259139537811,-0.181620121002,-0.00781277924118,-0.00696482405497,-0.164971539722,-0.986242790994
1574069853153801725,255,1574069853153347393,map,4.85332965851,-0.248116970062,-0.172344923019,-0.00789433279781,-0.00678578129957,-0.164575432464,-0.986309565862
1574069853393726160,256,1574069853393347741,map,4.86881256104,-0.229407787323,-0.160061597824,-0.00793615452743,-0.00659114342246,-0.164250224209,-0.986364759167
1574069853632239198,257,1574069853632033236,map,4.88453006744,-0.205414772034,-0.145992040634,-0.00788199654369,-0.00657861797404,-0.163958404616,-0.986413826683
1574069853873975113,258,1574069853873532867,map,4.89725399017,-0.162075519562,-0.13932466507,-0.00776227849226,-0.00652667176912,-0.163624201933,-0.986470612907
1574069854112522260,259,1574069854112349770,map,4.89491033554,-0.127683162689,-0.136200904846,-0.00771876799033,-0.00630476808831,-0.163248126324,-0.986534702771
1574069854353893105,260,1574069854353485294,map,4.88934230804,-0.118564128876,-0.128410339355,-0.00775966448614,-0.00614001935864,-0.162860613147,-0.986599467086
1574069854591956057,261,1574069854591746533,map,4.88082361221,-0.118058204651,-0.119427919388,-0.00788338505151,-0.00605524601892,-0.162496885821,-0.986658982797
1574069854832776763,262,1574069854832421786,map,4.87020492554,-0.100974082947,-0.117916822433,-0.00798443410892,-0.00594080874332,-0.162170847272,-0.986712507217
1574069855073099626,263,1574069855072904008,map,4.87142515182,-0.0769238471985,-0.116152763367,-0.00802133611946,-0.00577404367215,-0.161799322968,-0.986774187782
1574069855314146919,264,1574069855313631067,map,4.85694026947,-0.0559167861938,-0.119829177856,-0.00796214854871,-0.00573379342379,-0.161420168966,-0.986836996091
1574069855553663561,265,1574069855553401504,map,4.85102367401,-0.0488185882568,-0.11990737915,-0.00800178042107,-0.00569255403136,-0.16100923517,-0.986904044236
1574069855793187982,266,1574069855792790138,map,4.85134887695,-0.0590200424194,-0.120732307434,-0.00811954729913,-0.00554405748387,-0.160627885163,-0.986966067748
1574069856032601145,267,1574069856032345831,map,4.87007141113,-0.0702829360962,-0.12842297554,-0.0082592378088,-0.00545090073844,-0.160290183041,-0.987020329017
1574069856273521109,268,1574069856273139246,map,4.89907932281,-0.0958514213562,-0.141409873962,-0.00836090377108,-0.00553746152765,-0.15995146289,-0.987073939139
1574069856513039225,269,1574069856512753631,map,4.91204547882,-0.127510070801,-0.154552459717,-0.00854574502359,-0.00556829040789,-0.15956148084,-0.98713529884
1574069856759254324,270,1574069856758763204,map,4.90520763397,-0.165891170502,-0.167439699173,-0.00866102095039,-0.00544651741824,-0.159253463515,-0.987184712464
1574069856992401414,271,1574069856992060218,map,4.89656448364,-0.199045658112,-0.186781406403,-0.00875750365195,-0.00531970609937,-0.158986884636,-0.98722752057
1574069857234025734,272,1574069857233632788,map,4.90631961823,-0.203946590424,-0.204049825668,-0.00880539637376,-0.00524937955544,-0.158677328187,-0.987277273378
1574069857472581618,273,1574069857472324454,map,4.91805267334,-0.182822227478,-0.213799953461,-0.00874578486215,-0.00523764398478,-0.15832402334,-0.987334584609
1574069857713422390,274,1574069857713030713,map,4.9113817215,-0.163375377655,-0.223891019821,-0.00860993425921,-0.00520090804698,-0.157942689377,-0.987397046005
1574069857952732341,275,1574069857952514969,map,4.90450668335,-0.140679836273,-0.232903957367,-0.00852779355379,-0.00515284452523,-0.157529583911,-0.987464001938
1574069858193500237,276,1574069858193093870,map,4.91334438324,-0.122155189514,-0.238839387894,-0.00847127062437,-0.00510099744587,-0.157171725764,-0.987521780023
1574069858432973115,277,1574069858432721040,map,4.92883014679,-0.109589099884,-0.246793270111,-0.00848791107371,-0.00509276697022,-0.156833739959,-0.987575413374
1574069858672977743,278,1574069858672606091,map,4.9371509552,-0.0926723480225,-0.252170562744,-0.00849517201335,-0.00514328422123,-0.156478912706,-0.98763137281
1574069858912057145,279,1574069858911871825,map,4.94267416,-0.0780758857727,-0.259540319443,-0.00847978106595,-0.0051488370556,-0.156099294869,-0.987691547464
1574069859152352084,280,1574069859151973384,map,4.96098852158,-0.0861482620239,-0.268403768539,-0.00847396694178,-0.00514231146591,-0.155811182709,-0.987737122852
1574069859392610426,281,1574069859392352591,map,4.97402763367,-0.126226902008,-0.276504278183,-0.00861876684421,-0.00511202272582,-0.155512582596,-0.987783083848
1574069859633378885,282,1574069859632915891,map,4.98688983917,-0.157617092133,-0.280086040497,-0.00877000815711,-0.00512110733323,-0.155174557828,-0.987834863638
1574069859871411604,283,1574069859871206191,map,4.99967193604,-0.188917160034,-0.284061670303,-0.00884595738335,-0.00514343065346,-0.154933742324,-0.987871869044
1574069860113549308,284,1574069860113169308,map,5.00182247162,-0.2308344841,-0.294068098068,-0.00897783925727,-0.00512189256375,-0.154706145686,-0.987906459694
1574069860353047176,285,1574069860352898575,map,5.00210762024,-0.268259525299,-0.303217411041,-0.00908201720349,-0.00502834745887,-0.154418590894,-0.987950976249
1574069860592813869,286,1574069860592420751,map,5.00640821457,-0.293526172638,-0.308242082596,-0.00912894087339,-0.00502902417786,-0.154035147864,-0.988010396998
1574069860831242757,287,1574069860830999229,map,5.02112007141,-0.29429101944,-0.309685707092,-0.00908702281017,-0.00502541659753,-0.153654503613,-0.988070070756
1574069861073065155,288,1574069861072646273,map,5.04093837738,-0.291131973267,-0.312175035477,-0.00899469338969,-0.00507744581113,-0.153311284131,-0.988123962463
1574069861311401499,289,1574069861311240845,map,5.04671669006,-0.29135799408,-0.313647985458,-0.00896264592894,-0.00513576059527,-0.152982678711,-0.988174880755
1574069861552826918,290,1574069861552609226,map,5.05348587036,-0.277485370636,-0.303632259369,-0.00886543012202,-0.00514319985157,-0.152640817261,-0.988228583148
1574069861792913658,291,1574069861792675282,map,5.06487464905,-0.267005443573,-0.292738676071,-0.00877409989627,-0.00516873688614,-0.15225707834,-0.988288460636
1574069862033714450,292,1574069862033275473,map,5.07467889786,-0.26113653183,-0.289903402328,-0.00870766586913,-0.00516257092674,-0.1519449112,-0.988337122837
1574069862272096538,293,1574069862271903080,map,5.08198738098,-0.255003452301,-0.284888982773,-0.00866151638902,-0.005185589039,-0.151629227351,-0.988385888817
1574069862513324807,294,1574069862512989472,map,5.07349061966,-0.233209609985,-0.275020599365,-0.00856988563396,-0.00519844025152,-0.151279983563,-0.988440134683
1574069862752366586,295,1574069862752155153,map,5.06845998764,-0.191727638245,-0.266209602356,-0.00841557527029,-0.00514941957165,-0.150932357223,-0.988494858416
1574069862993337363,296,1574069862992993163,map,5.07262325287,-0.156692028046,-0.261952161789,-0.00822443814758,-0.00513756698619,-0.150537438466,-0.988556747811
1574069863232630826,297,1574069863232432293,map,5.06995773315,-0.12331199646,-0.254889965057,-0.00807069937773,-0.00517182090865,-0.150256756864,-0.988600537678
1574069863472475419,298,1574069863472132425,map,5.07362270355,-0.104142665863,-0.240703821182,-0.00799278606398,-0.00517143084106,-0.149971299505,-0.988644517002
1574069863711776933,299,1574069863711550578,map,5.0675444603,-0.0869016647339,-0.226479053497,-0.00795622024547,-0.00509390588045,-0.149652897202,-0.988693461616
1574069863953392656,300,1574069863953018346,map,5.0600104332,-0.065815448761,-0.215115308762,-0.00791484459597,-0.0051144178486,-0.149341905425,-0.988740710828
1574069864191252341,301,1574069864191064201,map,5.05647277832,-0.059045791626,-0.200374603271,-0.00787136062474,-0.00507669880487,-0.149028231239,-0.988788579579
1574069864433517127,302,1574069864433296531,map,5.05191326141,-0.0780363082886,-0.183494567871,-0.00795415878201,-0.00506497953385,-0.148748248071,-0.988830135077
1574069864675231351,303,1574069864675024803,map,5.03968906403,-0.0890884399414,-0.163362264633,-0.00804658204877,-0.00500140042031,-0.148438077695,-0.988876319669
1574069864911398159,304,1574069864911248813,map,5.05172920227,-0.0996265411377,-0.154370069504,-0.00809667046891,-0.00500918665034,-0.148172326648,-0.988915726234
