%time,field.header.seq,field.header.stamp,field.header.frame_id,field.voltage,field.current,field.charge,field.capacity,field.design_capacity,field.percentage,field.power_supply_status,field.power_supply_health,field.power_supply_technology,field.present,field.location,field.serial_number
1574069785560115534,52,1574069785559836924,,16.4230003357,-0.0,nan,nan,nan,0.990000009537,2,0,0,1,id0,
1574069785790399630,53,1574069785790309284,,16.4710006714,-0.0,nan,nan,nan,0.990000009537,2,0,0,1,id0,
1574069786030605297,54,1574069786030391670,,16.3600006104,-0.0,nan,nan,nan,0.990000009537,2,0,0,1,id0,
1574069786276376661,55,1574069786276089438,,16.3640003204,-0.0,nan,nan,nan,0.990000009537,2,0,0,1,id0,
1574069786512714429,56,1574069786512468149,,16.4179992676,-0.0,nan,nan,nan,0.990000009537,2,0,0,1,id0,
1574069786758617826,57,1574069786758365543,,16.4729995728,-0.0,nan,nan,nan,0.990000009537,2,0,0,1,id0,
1574069787008251250,58,1574069787008031875,,16.357000351,-0.0,nan,nan,nan,0.990000009537,2,0,0,1,id0,
1574069787232831350,59,1574069787232638147,,16.361000061,-0.0,nan,nan,nan,0.990000009537,2,0,0,1,id0,
1574069787480242586,60,1574069787480043001,,16.4039993286,-0.0,nan,nan,nan,0.990000009537,2,0,0,1,id0,
1574069787731933110,61,1574069787731642116,,16.4729995728,-0.0,nan,nan,nan,0.990000009537,2,0,0,1,id0,
1574069787956870560,62,1574069787956498305,,16.3549995422,-0.0,nan,nan,nan,0.990000009537,2,0,0,1,id0,
1574069788191493353,63,1574069788191224963,,16.3579998016,-0.0,nan,nan,nan,0.990000009537,2,0,0,1,id0,
1574069788443210540,64,1574069788442921679,,16.4090003967,-0.0,nan,nan,nan,0.990000009537,2,0,0,1,id0,
1574069788691153057,65,1574069788690923524,,16.4740009308,-0.0,nan,nan,nan,0.990000009537,2,0,0,1,id0,
1574069788912135213,66,1574069788911812686,,16.3549995422,-0.0,nan,nan,nan,0.990000009537,2,0,0,1,id0,
1574069789155261042,67,1574069789155030824,,16.3579998016,-0.0,nan,nan,nan,0.990000009537,2,0,0,1,id0,
1574069789392911276,68,1574069789392530801,,16.3439998627,-0.0,nan,nan,nan,0.990000009537,2,0,0,1,id0,
1574069789631908986,69,1574069789631758938,,16.4729995728,-0.0,nan,nan,nan,0.990000009537,2,0,0,1,id0,
1574069789881236213,70,1574069789880897779,,16.452999115,-0.0,nan,nan,nan,0.990000009537,2,0,0,1,id0,
1574069790111580083,71,1574069790111389946,,16.3560009003,-0.0,nan,nan,nan,0.990000009537,2,0,0,1,id0,
1574069790361233306,72,1574069790360909017,,16.3409996033,-0.0,nan,nan,nan,0.990000009537,2,0,0,1,id0,
1574069790608022480,73,1574069790607887989,,16.4270000458,-0.0,nan,nan,nan,0.990000009537,2,0,0,1,id0,
1574069790842837427,74,1574069790842647820,,16.4470005035,-0.0,nan,nan,nan,0.990000009537,2,0,0,1,id0,
1574069791090104406,75,1574069791089904789,,16.361000061,-0.0,nan,nan,nan,0.990000009537,2,0,0,1,id0,
1574069791322958712,76,1574069791322579646,,16.3349990845,-0.0,nan,nan,nan,0.990000009537,2,0,0,1,id0,
1574069791551229796,77,1574069791551046667,,16.4349994659,-0.0,nan,nan,nan,0.990000009537,2,0,0,1,id0,
1574069791790673829,78,1574069791790345112,,16.4710006714,-0.0,nan,nan,nan,0.990000009537,2,0,0,1,id0,
1574069792042470610,79,1574069792042299036,,16.3589992523,-0.0,nan,nan,nan,0.990000009537,2,0,0,1,id0,
1574069792288586099,80,1574069792288255971,,16.361000061,-0.0,nan,nan,nan,0.990000009537,2,0,0,1,id0,
1574069792510854504,81,1574069792510652419,,16.4349994659,-0.0,nan,nan,nan,0.990000009537,2,0,0,1,id0,
1574069792769055215,82,1574069792768798421,,16.4750003815,-0.0,nan,nan,nan,0.990000009537,2,0,0,1,id0,
1574069792995374691,83,1574069792995182989,,16.3560009003,-0.0,nan,nan,nan,0.990000009537,2,0,0,1,id0,
1574069793231528042,84,1574069793231161851,,16.3560009003,-0.0,nan,nan,nan,0.990000009537,2,0,0,1,id0,
1574069793480967914,85,1574069793480817951,,16.4060001373,-0.0,nan,nan,nan,0.990000009537,2,0,0,1,id0,
1574069793716883250,86,1574069793716498451,,16.4710006714,-0.0,nan,nan,nan,0.990000009537,2,0,0,1,id0,
1574069794047975400,87,1574069794047806316,,16.3470001221,-0.0,nan,nan,nan,0.990000009537,2,0,0,1,id0,
1574069794354563489,88,1574069794354267275,,16.2770004272,-0.0,nan,nan,nan,0.990000009537,2,0,0,1,id0,
1574069794705402691,89,1574069794705047389,,16.3400001526,-0.0,nan,nan,nan,0.990000009537,2,0,0,1,id0,
1574069795004764179,90,1574069795004628098,,16.3479995728,-0.0,nan,nan,nan,0.990000009537,2,0,0,1,id0,
1574069795331243442,91,1574069795330873204,,16.2889995575,-0.0,nan,nan,nan,0.990000009537,2,0,0,1,id0,
1574069795616119978,92,1574069795615816818,,16.3409996033,-0.0,nan,nan,nan,0.990000009537,2,0,0,1,id0,
1574069795969697293,93,1574069795969488788,,16.3479995728,-0.0,nan,nan,nan,0.990000009537,2,0,0,1,id0,
1574069796300532429,94,1574069796300181014,,16.3400001526,-0.0,nan,nan,nan,0.990000009537,2,0,0,1,id0,
1574069796667158792,95,1574069796666849086,,16.3519992828,-0.0,nan,nan,nan,0.990000009537,2,0,0,1,id0,
1574069796951832771,96,1574069796951661798,,16.3479995728,-0.0,nan,nan,nan,0.990000009537,2,0,0,1,id0,
1574069797276527301,97,1574069797276229140,,16.3120002747,-0.0,nan,nan,nan,0.990000009537,2,0,0,1,id0,
1574069797596075379,98,1574069797595805456,,16.3010005951,-0.0,nan,nan,nan,0.990000009537,2,0,0,1,id0,
1574069797932621053,99,1574069797932433946,,16.3439998627,-0.0,nan,nan,nan,0.990000009537,2,0,0,1,id0,
1574069798229723568,100,1574069798229386173,,16.313999176,-0.0,nan,nan,nan,0.990000009537,2,0,0,1,id0,
1574069798557684138,101,1574069798557370424,,16.3530006409,-0.0,nan,nan,nan,0.990000009537,2,0,0,1,id0,
1574069798870349625,102,1574069798870186841,,16.3530006409,-0.0,nan,nan,nan,0.990000009537,2,0,0,1,id0,
1574069799214120016,103,1574069799213757012,,16.2870006561,-0.0,nan,nan,nan,0.990000009537,2,0,0,1,id0,
1574069799533706058,104,1574069799533290233,,16.3530006409,-0.0,nan,nan,nan,0.990000009537,2,0,0,1,id0,
1574069799808347927,105,1574069799808137058,,16.3479995728,-0.0,nan,nan,nan,0.990000009537,2,0,0,1,id0,
1574069800110974734,106,1574069800110559964,,16.3530006409,-0.0,nan,nan,nan,0.990000009537,2,0,0,1,id0,
1574069800393984318,107,1574069800393730109,,16.2889995575,-0.0,nan,nan,nan,0.990000009537,2,0,0,1,id0,
1574069800738263916,108,1574069800738094221,,16.3519992828,-0.0,nan,nan,nan,0.990000009537,2,0,0,1,id0,
1574069801057100382,109,1574069801056767858,,16.3530006409,-0.0,nan,nan,nan,0.990000009537,2,0,0,1,id0,
1574069801329406975,110,1574069801329215722,,16.2940006256,-0.0,nan,nan,nan,0.990000009537,2,0,0,1,id0,
1574069801605508256,111,1574069801605139506,,16.3470001221,-0.0,nan,nan,nan,0.990000009537,2,0,0,1,id0,
1574069801930852205,112,1574069801930670180,,16.3490009308,-0.0,nan,nan,nan,0.990000009537,2,0,0,1,id0,
1574069802225773172,113,1574069802225411452,,16.3549995422,-0.0,nan,nan,nan,0.990000009537,2,0,0,1,id0,
1574069802560158587,114,1574069802559795953,,16.2950000763,-0.0,nan,nan,nan,0.990000009537,2,0,0,1,id0,
1574069802904556600,115,1574069802904351012,,16.3519992828,-0.0,nan,nan,nan,0.990000009537,2,0,0,1,id0,
1574069803182639582,116,1574069803182331152,,16.3180007935,-0.0,nan,nan,nan,0.990000009537,2,0,0,1,id0,
1574069803472211723,117,1574069803471993829,,16.3040008545,-0.0599999986589,nan,nan,nan,0.990000009537,2,0,0,1,id0,
1574069803768251770,118,1574069803768035545,,16.3500003815,-0.0900000035763,nan,nan,nan,0.990000009537,2,0,0,1,id0,
1574069804084942767,119,1574069804084597550,,16.343000412,-0.10000000149,nan,nan,nan,0.990000009537,2,0,0,1,id0,
1574069804449940384,120,1574069804449702840,,16.3500003815,-0.10000000149,nan,nan,nan,0.990000009537,2,0,0,1,id0,
1574069804736253933,121,1574069804736087389,,16.3460006714,-0.119999997318,nan,nan,nan,0.990000009537,2,0,0,1,id0,
1574069805045247882,122,1574069805044880919,,16.3439998627,-0.259999990463,nan,nan,nan,0.990000009537,2,0,0,1,id0,
1574069805310477884,123,1574069805310247461,,16.3029994965,-0.540000021458,nan,nan,nan,0.990000009537,2,0,0,1,id0,
1574069805608722520,124,1574069805608390806,,16.329000473,-1.65999996662,nan,nan,nan,0.990000009537,2,0,0,1,id0,
1574069805930075565,125,1574069805929935752,,16.3180007935,-1.92999994755,nan,nan,nan,0.990000009537,2,0,0,1,id0,
1574069806269513298,126,1574069806269239024,,16.2740001678,-2.25999999046,nan,nan,nan,0.990000009537,2,0,0,1,id0,
1574069806663496561,127,1574069806663196692,,16.3159999847,-2.26999998093,nan,nan,nan,0.990000009537,2,0,0,1,id0,
1574069806975121589,128,1574069806974988416,,16.3069992065,-2.68000006676,nan,nan,nan,0.990000009537,2,0,0,1,id0,
1574069807282147439,129,1574069807281973336,,16.2399997711,-2.65000009537,nan,nan,nan,0.990000009537,2,0,0,1,id0,
1574069807620654938,130,1574069807620251647,,16.3029994965,-2.97000002861,nan,nan,nan,0.990000009537,2,0,0,1,id0,
1574069807951414167,131,1574069807951215227,,16.2900009155,-2.50999999046,nan,nan,nan,0.990000009537,2,0,0,1,id0,
1574069808288087663,132,1574069808287741284,,16.2369995117,-2.30999994278,nan,nan,nan,0.990000009537,2,0,0,1,id0,
1574069808578172118,133,1574069808577787911,,16.3069992065,-2.11999988556,nan,nan,nan,0.990000009537,2,0,0,1,id0,
1574069808911845619,134,1574069808911669338,,16.311000824,-2.45000004768,nan,nan,nan,0.990000009537,2,0,0,1,id0,
1574069809231820101,135,1574069809231419919,,16.3069992065,-2.5,nan,nan,nan,0.990000009537,2,0,0,1,id0,
1574069809619870849,136,1574069809619574660,,16.3059997559,-2.34999990463,nan,nan,nan,0.990000009537,2,0,0,1,id0,
1574069809919694147,137,1574069809919498850,,16.3120002747,-2.36999988556,nan,nan,nan,0.990000009537,2,0,0,1,id0,
1574069810190624251,138,1574069810190247576,,16.3169994354,-2.29999995232,nan,nan,nan,0.990000009537,2,0,0,1,id0,
1574069810475915591,139,1574069810475733478,,16.2770004272,-2.31999993324,nan,nan,nan,0.990000009537,2,0,0,1,id0,
1574069810789733980,140,1574069810789358537,,16.3120002747,-2.36999988556,nan,nan,nan,0.990000009537,2,0,0,1,id0,
1574069811133353046,141,1574069811132964177,,16.263999939,-2.48000001907,nan,nan,nan,0.990000009537,2,0,0,1,id0,
1574069811411331669,142,1574069811411176672,,16.263999939,-2.34999990463,nan,nan,nan,0.990000009537,2,0,0,1,id0,
1574069811705310991,143,1574069811705012005,,16.3120002747,-2.29999995232,nan,nan,nan,0.990000009537,2,0,0,1,id0,
1574069812045486164,144,1574069812045343674,,16.3090000153,-2.5,nan,nan,nan,0.990000009537,2,0,0,1,id0,
1574069812345811107,145,1574069812345414873,,16.2630004883,-2.45000004768,nan,nan,nan,0.990000009537,2,0,0,1,id0,
1574069812705047003,146,1574069812704680831,,16.3040008545,-2.43000006676,nan,nan,nan,0.990000009537,2,0,0,1,id0,
1574069813034440477,147,1574069813034287789,,16.3040008545,-2.45000004768,nan,nan,nan,0.990000009537,2,0,0,1,id0,
1574069813333467653,148,1574069813333097320,,16.2350006104,-2.22000002861,nan,nan,nan,0.990000009537,2,0,0,1,id0,
1574069813693267763,149,1574069813693007329,,16.311000824,-2.42000007629,nan,nan,nan,0.990000009537,2,0,0,1,id0,
1574069814021775611,150,1574069814021564595,,16.3069992065,-2.32999992371,nan,nan,nan,0.990000009537,2,0,0,1,id0,
1574069814311726344,151,1574069814311431923,,16.2430000305,-2.26999998093,nan,nan,nan,0.990000009537,2,0,0,1,id0,
1574069814662474254,152,1574069814662264055,,16.3069992065,-2.63000011444,nan,nan,nan,0.990000009537,2,0,0,1,id0,
1574069814930406593,153,1574069814930265625,,16.3040008545,-2.18000006676,nan,nan,nan,0.990000009537,2,0,0,1,id0,
1574069815215600865,154,1574069815215199805,,16.3199996948,-2.80999994278,nan,nan,nan,0.990000009537,2,0,0,1,id0,
1574069815509872436,155,1574069815509618467,,16.3120002747,-2.17000007629,nan,nan,nan,0.990000009537,2,0,0,1,id0,
1574069815759621007,156,1574069815759261298,,16.2980003357,-2.58999991417,nan,nan,nan,0.990000009537,2,0,0,1,id0,
1574069816070019853,157,1574069816069854675,,16.3059997559,-2.50999999046,nan,nan,nan,0.990000009537,2,0,0,1,id0,
1574069816307499468,158,1574069816307150135,,16.2409992218,-2.19000005722,nan,nan,nan,0.990000009537,2,0,0,1,id0,
1574069816552233987,159,1574069816552027470,,16.313999176,-2.3900001049,nan,nan,nan,0.990000009537,2,0,0,1,id0,
1574069816811284543,160,1574069816810977631,,16.3090000153,-2.47000002861,nan,nan,nan,0.990000009537,2,0,0,1,id0,
1574069817103049973,161,1574069817102850881,,16.3059997559,-2.17000007629,nan,nan,nan,0.990000009537,2,0,0,1,id0,
1574069817355498920,162,1574069817355091638,,16.2670001984,-2.33999991417,nan,nan,nan,0.990000009537,2,0,0,1,id0,
1574069817624852546,163,1574069817624686340,,16.3120002747,-2.30999994278,nan,nan,nan,0.990000009537,2,0,0,1,id0,
1574069817905812315,164,1574069817905475489,,16.3020000458,-2.38000011444,nan,nan,nan,0.990000009537,2,0,0,1,id0,
1574069818209770708,165,1574069818209373315,,16.2719993591,-2.24000000954,nan,nan,nan,0.990000009537,2,0,0,1,id0,
1574069818492307263,166,1574069818492154285,,16.313999176,-2.42000007629,nan,nan,nan,0.990000009537,2,0,0,1,id0,
1574069818753105796,167,1574069818752755603,,16.3199996948,-2.61999988556,nan,nan,nan,0.990000009537,2,0,0,1,id0,
1574069819011602208,168,1574069819011423663,,16.3090000153,-2.46000003815,nan,nan,nan,0.990000009537,2,0,0,1,id0,
1574069819275618459,169,1574069819275232637,,16.2670001984,-2.15000009537,nan,nan,nan,0.990000009537,2,0,0,1,id0,
1574069819551905620,170,1574069819551645370,,16.2630004883,-2.27999997139,nan,nan,nan,0.990000009537,2,0,0,1,id0,
1574069819813133072,171,1574069819812843961,,16.3120002747,-2.3900001049,nan,nan,nan,0.990000009537,2,0,0,1,id0,
1574069820106148826,172,1574069820105945742,,16.2709999084,-2.30999994278,nan,nan,nan,0.990000009537,2,0,0,1,id0,
1574069820400621311,173,1574069820400225947,,16.2700004578,-2.18000006676,nan,nan,nan,0.990000009537,2,0,0,1,id0,
1574069820671839725,174,1574069820671678181,,16.3129997253,-2.36999988556,nan,nan,nan,0.990000009537,2,0,0,1,id0,
1574069820910735875,175,1574069820910369185,,16.311000824,-2.43000006676,nan,nan,nan,0.990000009537,2,0,0,1,id0,
1574069821172158009,176,1574069821171964100,,16.3059997559,-2.46000003815,nan,nan,nan,0.990000009537,2,0,0,1,id0,
1574069821432148979,177,1574069821431830308,,16.283000946,-2.21000003815,nan,nan,nan,0.990000009537,2,0,0,1,id0,
1574069821700357318,178,1574069821700167090,,16.2989997864,-2.25,nan,nan,nan,0.990000009537,2,0,0,1,id0,
1574069822007715006,179,1574069822007346810,,16.313999176,-2.48000001907,nan,nan,nan,0.990000009537,2,0,0,1,id0,
1574069822329857685,180,1574069822329660350,,16.3099994659,-2.28999996185,nan,nan,nan,0.990000009537,2,0,0,1,id0,
1574069822589332667,181,1574069822589125344,,16.3059997559,-2.45000004768,nan,nan,nan,0.990000009537,2,0,0,1,id0,
1574069822843639883,182,1574069822843331086,,16.313999176,-2.32999992371,nan,nan,nan,0.990000009537,2,0,0,1,id0,
1574069823093314236,183,1574069823092490187,,16.3129997253,-2.11999988556,nan,nan,nan,0.990000009537,2,0,0,1,id0,
1574069823356611030,184,1574069823356300674,,16.2409992218,-2.27999997139,nan,nan,nan,0.990000009537,2,0,0,1,id0,
1574069823642709014,185,1574069823642448618,,16.3029994965,-2.29999995232,nan,nan,nan,0.990000009537,2,0,0,1,id0,
1574069823895198256,186,1574069823894813521,,16.3120002747,-2.26999998093,nan,nan,nan,0.990000009537,2,0,0,1,id0,
1574069824159630973,187,1574069824159465044,,16.3120002747,-2.23000001907,nan,nan,nan,0.990000009537,2,0,0,1,id0,
1574069824492586348,188,1574069824492223714,,16.2409992218,-2.23000001907,nan,nan,nan,0.990000009537,2,0,0,1,id0,
1574069824771957141,189,1574069824771791649,,16.3129997253,-2.25,nan,nan,nan,0.990000009537,2,0,0,1,id0,
1574069825014852538,190,1574069825014452285,,16.3069992065,-2.24000000954,nan,nan,nan,0.990000009537,2,0,0,1,id0,
1574069825308729548,191,1574069825308587610,,16.2439994812,-2.20000004768,nan,nan,nan,0.990000009537,2,0,0,1,id0,
1574069825557414958,192,1574069825557060626,,16.3159999847,-2.17000007629,nan,nan,nan,0.990000009537,2,0,0,1,id0,
1574069825819464054,193,1574069825819274813,,16.3090000153,-2.30999994278,nan,nan,nan,0.990000009537,2,0,0,1,id0,
1574069826079697794,194,1574069826079316331,,16.3120002747,-2.07999992371,nan,nan,nan,0.990000009537,2,0,0,1,id0,
1574069826385229205,195,1574069826385045854,,16.2409992218,-2.40000009537,nan,nan,nan,0.990000009537,2,0,0,1,id0,
1574069826621713256,196,1574069826621370197,,16.3099994659,-2.24000000954,nan,nan,nan,0.990000009537,2,0,0,1,id0,
1574069826948137318,197,1574069826947805225,,16.3150005341,-2.20000004768,nan,nan,nan,0.990000009537,2,0,0,1,id0,
1574069827202795401,198,1574069827202605485,,16.2740001678,-2.07999992371,nan,nan,nan,0.990000009537,2,0,0,1,id0,
1574069827472265168,199,1574069827471893208,,16.3169994354,-2.20000004768,nan,nan,nan,0.990000009537,2,0,0,1,id0,
1574069827731561034,200,1574069827731375600,,16.3120002747,-2.24000000954,nan,nan,nan,0.990000009537,2,0,0,1,id0,
1574069827994529753,201,1574069827994173632,,16.3069992065,-2.33999991417,nan,nan,nan,0.990000009537,2,0,0,1,id0,
1574069828251768998,202,1574069828251624231,,16.2719993591,-2.3900001049,nan,nan,nan,0.990000009537,2,0,0,1,id0,
1574069828545789110,203,1574069828545444131,,16.267999649,-2.01999998093,nan,nan,nan,0.990000009537,2,0,0,1,id0,
1574069828785472423,204,1574069828785274870,,16.3169994354,-2.23000001907,nan,nan,nan,0.990000009537,2,0,0,1,id0,
1574069829040525152,205,1574069829040125903,,16.3180007935,-2.19000005722,nan,nan,nan,0.990000009537,2,0,0,1,id0,
1574069829354764436,206,1574069829354597221,,16.2579994202,-2.23000001907,nan,nan,nan,0.990000009537,2,0,0,1,id0,
1574069829595559477,207,1574069829595239890,,16.311000824,-2.30999994278,nan,nan,nan,0.990000009537,2,0,0,1,id0,
1574069829865027517,208,1574069829864940348,,16.313999176,-2.21000003815,nan,nan,nan,0.990000009537,2,0,0,1,id0,
1574069830118063253,209,1574069830117650382,,16.3169994354,-2.1400001049,nan,nan,nan,0.990000009537,2,0,0,1,id0,
1574069830412786577,210,1574069830412487362,,16.281999588,-2.40000009537,nan,nan,nan,0.990000009537,2,0,0,1,id0,
1574069830665269893,211,1574069830664955738,,16.3129997253,-2.17000007629,nan,nan,nan,0.990000009537,2,0,0,1,id0,
1574069830944190550,212,1574069830943845192,,16.313999176,-2.11999988556,nan,nan,nan,0.990000009537,2,0,0,1,id0,
1574069831192120262,213,1574069831191790582,,16.3169994354,-1.91999995708,nan,nan,nan,0.990000009537,2,0,0,1,id0,
1574069831454752243,214,1574069831454367836,,16.2630004883,-2.00999999046,nan,nan,nan,0.990000009537,2,0,0,1,id0,
1574069831755881153,215,1574069831755628582,,16.3120002747,-2.09999990463,nan,nan,nan,0.990000009537,2,0,0,1,id0,
1574069832063998588,216,1574069832063574357,,16.3180007935,-2.02999997139,nan,nan,nan,0.990000009537,2,0,0,1,id0,
1574069832321597553,217,1574069832321404313,,16.2460002899,-1.96000003815,nan,nan,nan,0.990000009537,2,0,0,1,id0,
1574069832575289898,218,1574069832574926890,,16.3150005341,-1.96000003815,nan,nan,nan,0.990000009537,2,0,0,1,id0,
1574069832836687176,219,1574069832836468483,,16.3150005341,-2.11999988556,nan,nan,nan,0.990000009537,2,0,0,1,id0,
1574069833125636017,220,1574069833125268416,,16.3169994354,-2.17000007629,nan,nan,nan,0.990000009537,2,0,0,1,id0,
1574069833396078814,221,1574069833395884377,,16.2409992218,-2.09999990463,nan,nan,nan,0.990000009537,2,0,0,1,id0,
1574069833679580231,222,1574069833679230335,,16.3069992065,-1.94000005722,nan,nan,nan,0.990000009537,2,0,0,1,id0,
1574069833939915354,223,1574069833939620953,,16.3120002747,-2.18000006676,nan,nan,nan,0.990000009537,2,0,0,1,id0,
1574069834191592948,224,1574069834191245856,,16.3150005341,-2.00999999046,nan,nan,nan,0.990000009537,2,0,0,1,id0,
1574069834491486387,225,1574069834491323367,,16.3209991455,-2.04999995232,nan,nan,nan,0.990000009537,2,0,0,1,id0,
1574069834751638043,226,1574069834751480735,,16.3169994354,-1.96000003815,nan,nan,nan,0.990000009537,2,0,0,1,id0,
1574069835062655482,227,1574069835062262231,,16.3120002747,-1.99000000954,nan,nan,nan,0.990000009537,2,0,0,1,id0,
1574069835319348007,228,1574069835319105800,,16.2539997101,-1.90999996662,nan,nan,nan,0.990000009537,2,0,0,1,id0,
1574069835567072047,229,1574069835566708524,,16.3180007935,-1.75999999046,nan,nan,nan,0.990000009537,2,0,0,1,id0,
1574069835831206964,230,1574069835831010271,,16.3069992065,-1.98000001907,nan,nan,nan,0.990000009537,2,0,0,1,id0,
1574069836105154892,231,1574069836104815021,,16.3120002747,-1.96000003815,nan,nan,nan,0.990000009537,2,0,0,1,id0,
1574069836352838871,232,1574069836352611686,,16.2749996185,-2.07999992371,nan,nan,nan,0.990000009537,2,0,0,1,id0,
1574069836614505702,233,1574069836614155432,,16.3190002441,-2.11999988556,nan,nan,nan,0.990000009537,2,0,0,1,id0,
1574069836941871606,234,1574069836941703560,,16.3150005341,-2.05999994278,nan,nan,nan,0.990000009537,2,0,0,1,id0,
1574069837195123497,235,1574069837194756419,,16.2740001678,-1.88999998569,nan,nan,nan,0.990000009537,2,0,0,1,id0,
1574069837474273382,236,1574069837474109574,,16.2749996185,-2.04999995232,nan,nan,nan,0.990000009537,2,0,0,1,id0,
1574069837735288012,237,1574069837734926252,,16.3120002747,-2.02999997139,nan,nan,nan,0.990000009537,2,0,0,1,id0,
1574069837991350254,238,1574069837991187731,,16.3169994354,-1.91999995708,nan,nan,nan,0.990000009537,2,0,0,1,id0,
1574069838252062175,239,1574069838251703937,,16.2810001373,-1.95000004768,nan,nan,nan,0.990000009537,2,0,0,1,id0,
1574069838589019459,240,1574069838588811742,,16.3180007935,-1.97000002861,nan,nan,nan,0.990000009537,2,0,0,1,id0,
1574069838869285977,241,1574069838869101039,,16.3209991455,-2.13000011444,nan,nan,nan,0.990000009537,2,0,0,1,id0,
1574069839099544443,242,1574069839099243258,,16.3159999847,-2.05999994278,nan,nan,nan,0.990000009537,2,0,0,1,id0,
1574069839355314775,243,1574069839355079942,,16.267999649,-1.96000003815,nan,nan,nan,0.990000009537,2,0,0,1,id0,
1574069839611223227,244,1574069839610821599,,16.3180007935,-2.07999992371,nan,nan,nan,0.990000009537,2,0,0,1,id0,
1574069839889992338,245,1574069839889722365,,16.3120002747,-2.07999992371,nan,nan,nan,0.990000009537,2,0,0,1,id0,
1574069840152442340,246,1574069840152084404,,16.3180007935,-2.08999991417,nan,nan,nan,0.990000009537,2,0,0,1,id0,
1574069840431791597,247,1574069840431638785,,16.2439994812,-2.09999990463,nan,nan,nan,0.990000009537,2,0,0,1,id0,
1574069840755193233,248,1574069840754869271,,16.3129997253,-1.96000003815,nan,nan,nan,0.990000009537,2,0,0,1,id0,
1574069841032772107,249,1574069841032557303,,16.297000885,-3.04999995232,nan,nan,nan,0.990000009537,2,0,0,1,id0,
1574069841312525062,250,1574069841312208160,,16.2199993134,-1.92999994755,nan,nan,nan,0.990000009537,2,0,0,1,id0,
1574069841591622804,251,1574069841591453568,,16.2870006561,-2.20000004768,nan,nan,nan,0.990000009537,2,0,0,1,id0,
1574069841958818299,252,1574069841958617980,,16.3090000153,-2.11999988556,nan,nan,nan,0.990000009537,2,0,0,1,id0,
1574069842261286327,253,1574069842260912030,,16.3150005341,-1.85000002384,nan,nan,nan,0.990000009537,2,0,0,1,id0,
1574069842551257818,254,1574069842551061756,,16.3169994354,-2.05999994278,nan,nan,nan,0.990000009537,2,0,0,1,id0,
1574069842805127076,255,1574069842804758969,,16.3150005341,-1.97000002861,nan,nan,nan,0.990000009537,2,0,0,1,id0,
1574069843098912632,256,1574069843098663761,,16.3199996948,-1.73000001907,nan,nan,nan,0.990000009537,2,0,0,1,id0,
1574069843372280942,257,1574069843371939608,,16.2549991608,-1.99000000954,nan,nan,nan,0.990000009537,2,0,0,1,id0,
1574069843693822397,258,1574069843693517386,,16.3129997253,-2.04999995232,nan,nan,nan,0.990000009537,2,0,0,1,id0,
1574069844004607106,259,1574069844004438662,,16.3349990845,-1.19000005722,nan,nan,nan,0.990000009537,2,0,0,1,id0,
1574069844271987642,260,1574069844271597456,,16.267999649,-1.0,nan,nan,nan,0.990000009537,2,0,0,1,id0,
1574069844571256201,261,1574069844571084110,,16.3400001526,-0.699999988079,nan,nan,nan,0.990000009537,2,0,0,1,id0,
1574069844871010788,262,1574069844870635381,,16.3400001526,-0.300000011921,nan,nan,nan,0.990000009537,2,0,0,1,id0,
1574069845139536301,263,1574069845139314986,,16.3439998627,-0.300000011921,nan,nan,nan,0.990000009537,2,0,0,1,id0,
1574069845390683996,264,1574069845390354388,,16.2770004272,-0.370000004768,nan,nan,nan,0.990000009537,2,0,0,1,id0,
1574069845681994708,265,1574069845681750329,,16.3470001221,-0.340000003576,nan,nan,nan,0.990000009537,2,0,0,1,id0,
1574069845966065932,266,1574069845965725925,,16.343000412,-0.319999992847,nan,nan,nan,0.990000009537,2,0,0,1,id0,
1574069846216011098,267,1574069846215798226,,16.3010005951,-0.270000010729,nan,nan,nan,0.990000009537,2,0,0,1,id0,
1574069846480402502,268,1574069846480144010,,16.3439998627,-0.319999992847,nan,nan,nan,0.990000009537,2,0,0,1,id0,
1574069846715229907,269,1574069846715023987,,16.5720005035,-0.0,nan,nan,nan,0.990000009537,2,0,0,1,id0,
1574069846962052747,270,1574069846961646633,,16.4039993286,-0.0,nan,nan,nan,0.990000009537,2,0,0,1,id0,
1574069847191771765,271,1574069847191596304,,16.4279994965,-0.0,nan,nan,nan,0.990000009537,2,0,0,1,id0,
1574069847435156774,272,1574069847434817556,,16.4370002747,-0.0,nan,nan,nan,0.990000009537,2,0,0,1,id0,
1574069847672624968,273,1574069847672466863,,16.3600006104,-0.0,nan,nan,nan,0.990000009537,2,0,0,1,id0,
1574069847912973122,274,1574069847912574076,,16.3600006104,-0.0,nan,nan,nan,0.990000009537,2,0,0,1,id0,
1574069848148999571,275,1574069848148841184,,16.4349994659,-0.0,nan,nan,nan,0.990000009537,2,0,0,1,id0,
1574069848392121011,276,1574069848391766795,,16.436000824,-0.0,nan,nan,nan,0.990000009537,2,0,0,1,id0,
1574069848633240773,277,1574069848633058812,,16.3589992523,-0.0,nan,nan,nan,0.990000009537,2,0,0,1,id0,
1574069848872478680,278,1574069848872122854,,16.361000061,-0.0,nan,nan,nan,0.990000009537,2,0,0,1,id0,
1574069849113363021,279,1574069849113267833,,16.4710006714,-0.0,nan,nan,nan,0.990000009537,2,0,0,1,id0,
1574069849357064593,280,1574069849356865149,,16.4319992065,-0.0,nan,nan,nan,0.990000009537,2,0,0,1,id0,
1574069849592324851,281,1574069849592018193,,16.361000061,-0.0,nan,nan,nan,0.990000009537,2,0,0,1,id0,
1574069849842401537,282,1574069849842231828,,16.357000351,-0.0,nan,nan,nan,0.990000009537,2,0,0,1,id0,
1574069850085527205,283,1574069850085111193,,16.4759998322,-0.0,nan,nan,nan,0.990000009537,2,0,0,1,id0,
1574069850312164322,284,1574069850311823635,,16.4060001373,-0.0,nan,nan,nan,0.990000009537,2,0,0,1,id0,
1574069850552936999,285,1574069850552811811,,16.3549995422,-0.0,nan,nan,nan,0.990000009537,2,0,0,1,id0,
1574069850801995704,286,1574069850801860484,,16.357000351,-0.0,nan,nan,nan,0.990000009537,2,0,0,1,id0,
1574069851030009763,287,1574069851029796857,,16.4130001068,-0.0,nan,nan,nan,0.990000009537,2,0,0,1,id0,
1574069851288979839,288,1574069851288710601,,16.4099998474,-0.0,nan,nan,nan,0.990000009537,2,0,0,1,id0,
1574069851517895074,289,1574069851517760541,,16.4239997864,-0.0,nan,nan,nan,0.990000009537,2,0,0,1,id0,
1574069851756680655,290,1574069851756343376,,16.3600006104,-0.0,nan,nan,nan,0.990000009537,2,0,0,1,id0,
1574069851987189101,291,1574069851987067360,,16.406999588,-0.0,nan,nan,nan,0.990000009537,2,0,0,1,id0,
1574069852230366179,292,1574069852230014236,,16.4330005646,-0.0,nan,nan,nan,0.990000009537,2,0,0,1,id0,
1574069852471955719,293,1574069852471770058,,16.4249992371,-0.0,nan,nan,nan,0.990000009537,2,0,0,1,id0,
1574069852714369644,294,1574069852714073817,,16.361000061,-0.0,nan,nan,nan,0.990000009537,2,0,0,1,id0,
1574069852949968060,295,1574069852949780458,,16.4060001373,-0.0,nan,nan,nan,0.990000009537,2,0,0,1,id0,
1574069853193052027,296,1574069853192654806,,16.4290008545,-0.0,nan,nan,nan,0.990000009537,2,0,0,1,id0,
1574069853433289223,297,1574069853432976322,,16.4349994659,-0.0,nan,nan,nan,0.990000009537,2,0,0,1,id0,
1574069853675303256,298,1574069853675031061,,16.3589992523,-0.0,nan,nan,nan,0.990000009537,2,0,0,1,id0,
1574069853913118205,299,1574069853912904016,,16.357000351,-0.0,nan,nan,nan,0.990000009537,2,0,0,1,id0,
1574069854151629416,300,1574069854151544683,,16.4319992065,-0.0,nan,nan,nan,0.990000009537,2,0,0,1,id0,
1574069854404126660,301,1574069854403425259,,16.4330005646,-0.0,nan,nan,nan,0.990000009537,2,0,0,1,id0,
1574069854632366087,302,1574069854632154090,,16.3479995728,-0.0,nan,nan,nan,0.990000009537,2,0,0,1,id0,
1574069854871092510,303,1574069854870910057,,16.3600006104,-0.0,nan,nan,nan,0.990000009537,2,0,0,1,id0,
1574069855111618992,304,1574069855111480207,,16.4759998322,-0.0,nan,nan,nan,0.990000009537,2,0,0,1,id0,
1574069855352322354,305,1574069855352179028,,16.4349994659,-0.0,nan,nan,nan,0.990000009537,2,0,0,1,id0,
1574069855612626505,306,1574069855612241006,,16.361000061,-0.0,nan,nan,nan,0.990000009537,2,0,0,1,id0,
1574069855832837151,307,1574069855832699799,,16.361000061,-0.0,nan,nan,nan,0.990000009537,2,0,0,1,id0,
1574069856075129446,308,1574069856074902185,,16.4729995728,-0.0,nan,nan,nan,0.990000009537,2,0,0,1,id0,
1574069856322603132,309,1574069856322399511,,16.406999588,-0.0,nan,nan,nan,0.990000009537,2,0,0,1,id0,
1574069856565727716,310,1574069856565499697,,16.3579998016,-0.0,nan,nan,nan,0.990000009537,2,0,0,1,id0,
1574069856804785171,311,1574069856804536539,,16.3589992523,-0.0,nan,nan,nan,0.990000009537,2,0,0,1,id0,
1574069857028048552,312,1574069857027815336,,16.408000946,-0.0,nan,nan,nan,0.990000009537,2,0,0,1,id0,
1574069857285136939,313,1574069857284942603,,16.4060001373,-0.0,nan,nan,nan,0.990000009537,2,0,0,1,id0,
1574069857511205500,314,1574069857510979149,,16.4270000458,-0.0,nan,nan,nan,0.990000009537,2,0,0,1,id0,
1574069857765293327,315,1574069857765094584,,16.3589992523,-0.0,nan,nan,nan,0.990000009537,2,0,0,1,id0,
1574069857991829843,316,1574069857991702692,,16.4029998779,-0.0,nan,nan,nan,0.990000009537,2,0,0,1,id0,
1574069858232019681,317,1574069858231649886,,16.4330005646,-0.0,nan,nan,nan,0.990000009537,2,0,0,1,id0,
1574069858484529480,318,1574069858484370677,,16.4279994965,-0.0,nan,nan,nan,0.990000009537,2,0,0,1,id0,
1574069858729824845,319,1574069858729563225,,16.361000061,-0.0,nan,nan,nan,0.990000009537,2,0,0,1,id0,
1574069858949256368,320,1574069858949026245,,16.3990001678,-0.0,nan,nan,nan,0.990000009537,2,0,0,1,id0,
1574069859201194638,321,1574069859200865789,,16.4300003052,-0.0,nan,nan,nan,0.990000009537,2,0,0,1,id0,
1574069859431611938,322,1574069859431489400,,16.4190006256,-0.0,nan,nan,nan,0.990000009537,2,0,0,1,id0,
1574069859672613392,323,1574069859672260702,,16.361000061,-0.0,nan,nan,nan,0.990000009537,2,0,0,1,id0,
1574069859912885984,324,1574069859912746554,,16.3640003204,-0.0,nan,nan,nan,0.990000009537,2,0,0,1,id0,
1574069860164983751,325,1574069860164660685,,16.4319992065,-0.0,nan,nan,nan,0.990000009537,2,0,0,1,id0,
1574069860391112481,326,1574069860390972401,,16.4179992676,-0.0,nan,nan,nan,0.990000009537,2,0,0,1,id0,
1574069860636045903,327,1574069860635672311,,16.3549995422,-0.0,nan,nan,nan,0.990000009537,2,0,0,1,id0,
1574069860872481367,328,1574069860872217530,,16.3649997711,-0.0,nan,nan,nan,0.990000009537,2,0,0,1,id0,
1574069861109387110,329,1574069861109017652,,16.4759998322,-0.0,nan,nan,nan,0.990000009537,2,0,0,1,id0,
1574069861352499939,330,1574069861352388394,,16.4330005646,-0.0,nan,nan,nan,0.990000009537,2,0,0,1,id0,
1574069861589448624,331,1574069861589114670,,16.3549995422,-0.0,nan,nan,nan,0.990000009537,2,0,0,1,id0,
1574069861829370560,332,1574069861829197623,,16.3589992523,-0.0,nan,nan,nan,0.990000009537,2,0,0,1,id0,
1574069862076947709,333,1574069862076580963,,16.4759998322,-0.0,nan,nan,nan,0.990000009537,2,0,0,1,id0,
1574069862308471857,334,1574069862308294546,,16.4099998474,-0.0,nan,nan,nan,0.990000009537,2,0,0,1,id0,
1574069862553612442,335,1574069862553212084,,16.3549995422,-0.0,nan,nan,nan,0.990000009537,2,0,0,1,id0,
1574069862791673955,336,1574069862791482873,,16.3549995422,-0.0,nan,nan,nan,0.990000009537,2,0,0,1,id0,
1574069863030374185,337,1574069863030025914,,16.3990001678,-0.0,nan,nan,nan,0.990000009537,2,0,0,1,id0,
1574069863268876246,338,1574069863268621090,,16.4120006561,-0.0,nan,nan,nan,0.990000009537,2,0,0,1,id0,
1574069863513146760,339,1574069863512786991,,16.4270000458,-0.0,nan,nan,nan,0.990000009537,2,0,0,1,id0,
1574069863749623255,340,1574069863749467989,,16.3560009003,-0.0,nan,nan,nan,0.990000009537,2,0,0,1,id0,
1574069863995258443,341,1574069863994941298,,16.3990001678,-0.0,nan,nan,nan,0.990000009537,2,0,0,1,id0,
1574069864231287161,342,1574069864231121498,,16.4270000458,-0.0,nan,nan,nan,0.990000009537,2,0,0,1,id0,
1574069864477439037,343,1574069864477002699,,16.4300003052,-0.0,nan,nan,nan,0.990000009537,2,0,0,1,id0,
1574069864709625420,344,1574069864709460385,,16.3460006714,-0.0,nan,nan,nan,0.990000009537,2,0,0,1,id0,
1574069864953414446,345,1574069864953100363,,16.4009990692,-0.0,nan,nan,nan,0.990000009537,2,0,0,1,id0,
