%time,field.header.seq,field.header.stamp,field.header.frame_id,field.status.status,field.status.service,field.latitude,field.longitude,field.altitude,field.position_covariance0,field.position_covariance1,field.position_covariance2,field.position_covariance3,field.position_covariance4,field.position_covariance5,field.position_covariance6,field.position_covariance7,field.position_covariance8,field.position_covariance_type
1574069785621584801,52,1574069785621424087,base_link,0,1,40.3548507,-3.7441322,694.516612183,0.722500040531,0.0,0.0,0.0,0.722500040531,0.0,0.0,0.0,2.01639987812,1
1574069785858309060,53,1574069785858138123,base_link,0,1,40.3548502,-3.7441325,694.496611958,0.722500040531,0.0,0.0,0.0,0.722500040531,0.0,0.0,0.0,2.01639987812,1
1574069786110625017,54,1574069786110338604,base_link,0,1,40.3548495,-3.7441328,694.686611541,0.722500040531,0.0,0.0,0.0,0.722500040531,0.0,0.0,0.0,2.01639987812,1
1574069786356798524,55,1574069786356408699,base_link,0,1,40.3548485,-3.744133,694.596610748,0.722500040531,0.0,0.0,0.0,0.722500040531,0.0,0.0,0.0,2.01639987812,1
1574069786578917013,56,1574069786578747487,base_link,0,1,40.3548486,-3.7441328,694.676610672,0.722500040531,0.0,0.0,0.0,0.722500040531,0.0,0.0,0.0,2.01639987812,1
1574069786823725257,57,1574069786823320336,base_link,0,1,40.3548486,-3.7441326,694.6466105,0.722500040531,0.0,0.0,0.0,0.722500040531,0.0,0.0,0.0,2.01639987812,1
1574069787069640009,58,1574069787069432241,base_link,0,1,40.3548487,-3.7441323,694.576610338,0.960400037384,0.0,0.0,0.0,0.960400037384,0.0,0.0,0.0,4.32639968262,1
1574069787307754031,59,1574069787307332828,base_link,0,1,40.3548488,-3.7441319,694.40661009,0.960400037384,0.0,0.0,0.0,0.960400037384,0.0,0.0,0.0,4.32639968262,1
1574069787558500208,60,1574069787558266943,base_link,0,1,40.3548473,-3.744131,693.986607866,0.960400037384,0.0,0.0,0.0,0.960400037384,0.0,0.0,0.0,4.32639968262,1
1574069787790312573,61,1574069787789849606,base_link,0,1,40.3548466,-3.7441307,693.976606932,0.960400037384,0.0,0.0,0.0,0.960400037384,0.0,0.0,0.0,4.32639968262,1
1574069788020608670,62,1574069788020399237,base_link,0,1,40.3548465,-3.7441305,694.006606663,0.960400037384,0.0,0.0,0.0,0.960400037384,0.0,0.0,0.0,4.32639968262,1
1574069788273625615,63,1574069788273345510,base_link,0,1,40.3548468,-3.7441302,694.016606694,0.960400037384,0.0,0.0,0.0,0.960400037384,0.0,0.0,0.0,4.32639968262,1
1574069788510978415,64,1574069788510716422,base_link,0,1,40.3548472,-3.74413,693.956606908,0.960400037384,0.0,0.0,0.0,0.960400037384,0.0,0.0,0.0,4.32639968262,1
1574069788751462298,65,1574069788751078018,base_link,0,1,40.354847,-3.7441297,693.816606456,0.960400037384,0.0,0.0,0.0,0.960400037384,0.0,0.0,0.0,4.32639968262,1
1574069788980371175,66,1574069788980164701,base_link,0,1,40.3548468,-3.7441295,693.716606091,0.960400037384,0.0,0.0,0.0,0.960400037384,0.0,0.0,0.0,4.32639968262,1
1574069789230705819,67,1574069789230312778,base_link,0,1,40.3548465,-3.7441291,693.746605457,0.960400037384,0.0,0.0,0.0,0.960400037384,0.0,0.0,0.0,4.32639968262,1
1574069789453834449,68,1574069789453622044,base_link,0,1,40.3548459,-3.7441287,693.726604533,0.960400037384,0.0,0.0,0.0,0.960400037384,0.0,0.0,0.0,4.32639968262,1
1574069789711227451,69,1574069789710793873,base_link,0,1,40.354845,-3.7441285,693.966603491,0.722500040531,0.0,0.0,0.0,0.722500040531,0.0,0.0,0.0,2.01639987812,1
1574069789947061531,70,1574069789946947889,base_link,0,1,40.3548448,-3.7441284,693.996603212,0.960400037384,0.0,0.0,0.0,0.960400037384,0.0,0.0,0.0,4.32639968262,1
1574069790192158724,71,1574069790191822429,base_link,0,1,40.3548439,-3.7441285,694.046602429,0.722500040531,0.0,0.0,0.0,0.722500040531,0.0,0.0,0.0,2.01639987812,1
1574069790441603229,72,1574069790440941888,base_link,0,1,40.3548436,-3.7441284,693.946602053,0.722500040531,0.0,0.0,0.0,0.722500040531,0.0,0.0,0.0,2.01639987812,1
1574069790669800990,73,1574069790669575875,base_link,0,1,40.3548435,-3.7441281,693.816601698,0.722500040531,0.0,0.0,0.0,0.722500040531,0.0,0.0,0.0,2.01639987812,1
1574069790902431191,74,1574069790902019425,base_link,0,1,40.3548434,-3.744128,693.706601516,0.960400037384,0.0,0.0,0.0,0.960400037384,0.0,0.0,0.0,4.32639968262,1
1574069791150253635,75,1574069791150006812,base_link,0,1,40.3548434,-3.7441277,693.816601257,0.960400037384,0.0,0.0,0.0,0.960400037384,0.0,0.0,0.0,4.32639968262,1
1574069791387556818,76,1574069791387164532,base_link,0,1,40.354843,-3.7441273,693.866600527,0.960400037384,0.0,0.0,0.0,0.960400037384,0.0,0.0,0.0,4.32639968262,1
1574069791616074860,77,1574069791615848739,base_link,0,1,40.3548424,-3.744127,693.816599689,0.960400037384,0.0,0.0,0.0,0.960400037384,0.0,0.0,0.0,4.32639968262,1
1574069791870137931,78,1574069791869793048,base_link,0,1,40.3548421,-3.7441268,693.756599227,0.960400037384,0.0,0.0,0.0,0.960400037384,0.0,0.0,0.0,4.32639968262,1
1574069792105842197,79,1574069792105630372,base_link,0,1,40.3548414,-3.7441265,693.676598293,0.960400037384,0.0,0.0,0.0,0.960400037384,0.0,0.0,0.0,4.32639968262,1
1574069792353778971,80,1574069792353413888,base_link,0,1,40.3548406,-3.744126,693.696597089,0.960400037384,0.0,0.0,0.0,0.960400037384,0.0,0.0,0.0,4.32639968262,1
1574069792581426861,81,1574069792581239066,base_link,0,1,40.3548401,-3.7441257,693.776596348,0.960400037384,0.0,0.0,0.0,0.960400037384,0.0,0.0,0.0,4.32639968262,1
1574069792831451676,82,1574069792830998468,base_link,0,1,40.3548397,-3.7441255,693.76659579,0.960400037384,0.0,0.0,0.0,0.960400037384,0.0,0.0,0.0,6.8120994524,1
1574069793080281201,83,1574069793080083461,base_link,0,1,40.3548392,-3.7441254,693.706595221,0.960400037384,0.0,0.0,0.0,0.960400037384,0.0,0.0,0.0,4.32639968262,1
1574069793304917285,84,1574069793304530958,base_link,0,1,40.354839,-3.7441251,693.716594769,0.960400037384,0.0,0.0,0.0,0.960400037384,0.0,0.0,0.0,4.32639968262,1
1574069793549548908,85,1574069793549354438,base_link,0,1,40.3548386,-3.7441242,693.666593608,0.960400037384,0.0,0.0,0.0,0.960400037384,0.0,0.0,0.0,4.32639968262,1
1574069793783255947,86,1574069793782862819,base_link,0,1,40.3548377,-3.7441241,693.536592653,0.960400037384,0.0,0.0,0.0,0.960400037384,0.0,0.0,0.0,4.32639968262,1
1574069793989290898,87,1574069793989163345,base_link,0,1,40.3548367,-3.7441237,693.426591343,0.960400037384,0.0,0.0,0.0,0.960400037384,0.0,0.0,0.0,4.32639968262,1
1574069794256401139,88,1574069794256014194,base_link,0,1,40.3548359,-3.744123,693.326589968,0.960400037384,0.0,0.0,0.0,0.960400037384,0.0,0.0,0.0,4.32639968262,1
1574069794511040202,89,1574069794510865686,base_link,0,1,40.3548359,-3.7441223,693.256589365,0.960400037384,0.0,0.0,0.0,0.960400037384,0.0,0.0,0.0,4.32639968262,1
1574069794769421384,90,1574069794768966929,base_link,0,1,40.3548357,-3.7441216,693.226588568,0.960400037384,0.0,0.0,0.0,0.960400037384,0.0,0.0,0.0,4.32639968262,1
1574069795045995010,91,1574069795045789478,base_link,0,1,40.3548357,-3.7441203,693.086587448,0.960400037384,0.0,0.0,0.0,0.960400037384,0.0,0.0,0.0,4.32639968262,1
1574069795295591106,92,1574069795295194253,base_link,0,1,40.3548356,-3.7441198,693.006586921,0.960400037384,0.0,0.0,0.0,0.960400037384,0.0,0.0,0.0,4.32639968262,1
1574069795530238573,93,1574069795530060619,base_link,0,1,40.354835,-3.7441194,692.926585997,0.960400037384,0.0,0.0,0.0,0.960400037384,0.0,0.0,0.0,4.32639968262,1
1574069795787073480,94,1574069795786630282,base_link,0,1,40.3548344,-3.744119,692.696585074,0.960400037384,0.0,0.0,0.0,0.960400037384,0.0,0.0,0.0,4.32639968262,1
1574069796054642455,95,1574069796054405495,base_link,0,1,40.3548334,-3.7441183,692.506583505,0.960400037384,0.0,0.0,0.0,0.960400037384,0.0,0.0,0.0,4.32639968262,1
1574069796348358029,96,1574069796348116581,base_link,0,1,40.3548326,-3.7441179,692.336582388,0.960400037384,0.0,0.0,0.0,0.960400037384,0.0,0.0,0.0,4.32639968262,1
1574069796573605103,97,1574069796573308576,base_link,0,1,40.3548315,-3.7441175,692.126580982,0.960400037384,0.0,0.0,0.0,0.960400037384,0.0,0.0,0.0,4.32639968262,1
1574069796855280058,98,1574069796855084728,base_link,0,1,40.3548296,-3.7441166,691.916578373,0.960400037384,0.0,0.0,0.0,0.960400037384,0.0,0.0,0.0,4.32639968262,1
1574069797108351238,99,1574069797108034561,base_link,0,1,40.3548285,-3.7441164,691.746577139,0.960400037384,0.0,0.0,0.0,0.960400037384,0.0,0.0,0.0,4.32639968262,1
1574069797364929300,100,1574069797364754915,base_link,0,1,40.3548278,-3.7441166,691.786576635,0.960400037384,0.0,0.0,0.0,0.960400037384,0.0,0.0,0.0,4.32639968262,1
1574069797642500249,101,1574069797642125924,base_link,0,1,40.3548272,-3.744117,691.756576401,0.960400037384,0.0,0.0,0.0,0.960400037384,0.0,0.0,0.0,4.32639968262,1
1574069797883082439,102,1574069797882793458,base_link,0,1,40.3548265,-3.7441159,691.566574777,0.960400037384,0.0,0.0,0.0,0.960400037384,0.0,0.0,0.0,4.32639968262,1
1574069798135308915,103,1574069798134991684,base_link,0,1,40.3548262,-3.7441155,691.436574143,0.960400037384,0.0,0.0,0.0,0.960400037384,0.0,0.0,0.0,4.32639968262,1
1574069798388575617,104,1574069798388394805,base_link,0,1,40.354826,-3.744115,691.28657352,0.960400037384,0.0,0.0,0.0,0.960400037384,0.0,0.0,0.0,4.32639968262,1
1574069798645675427,105,1574069798645271620,base_link,0,1,40.3548262,-3.7441132,691.086572162,0.960400037384,0.0,0.0,0.0,0.960400037384,0.0,0.0,0.0,4.32639968262,1
1574069798911083267,106,1574069798910877483,base_link,0,1,40.3548259,-3.7441125,691.166571269,0.722500040531,0.0,0.0,0.0,0.722500040531,0.0,0.0,0.0,2.01639987812,1
1574069799174591094,107,1574069799174202959,base_link,0,1,40.3548259,-3.7441117,690.92657058,0.722500040531,0.0,0.0,0.0,0.722500040531,0.0,0.0,0.0,2.01639987812,1
1574069799440072596,108,1574069799439879882,base_link,0,1,40.3548261,-3.7441108,690.816569998,0.722500040531,0.0,0.0,0.0,0.722500040531,0.0,0.0,0.0,2.01639987812,1
1574069799690725842,109,1574069799690305737,base_link,0,1,40.3548263,-3.7441102,690.546569674,0.722500040531,0.0,0.0,0.0,0.722500040531,0.0,0.0,0.0,2.01639987812,1
1574069799972734648,110,1574069799972522845,base_link,0,1,40.3548264,-3.74411,690.426569598,0.722500040531,0.0,0.0,0.0,0.722500040531,0.0,0.0,0.0,2.01639987812,1
1574069800235044772,111,1574069800234850362,base_link,0,1,40.3548266,-3.7441082,690.386568241,0.722500040531,0.0,0.0,0.0,0.722500040531,0.0,0.0,0.0,2.01639987812,1
1574069800491121435,112,1574069800490743013,base_link,0,1,40.3548265,-3.7441072,690.546567283,0.722500040531,0.0,0.0,0.0,0.722500040531,0.0,0.0,0.0,2.01639987812,1
1574069800774304173,113,1574069800774095054,base_link,0,1,40.3548265,-3.7441067,690.596566852,0.722500040531,0.0,0.0,0.0,0.722500040531,0.0,0.0,0.0,2.01639987812,1
1574069801012645028,114,1574069801012252347,base_link,0,1,40.3548268,-3.7441061,690.686566625,0.722500040531,0.0,0.0,0.0,0.722500040531,0.0,0.0,0.0,2.01639987812,1
1574069801273359336,115,1574069801273144321,base_link,0,1,40.3548273,-3.7441063,690.12656728,0.722500040531,0.0,0.0,0.0,0.722500040531,0.0,0.0,0.0,2.01639987812,1
1574069801531990663,116,1574069801531611086,base_link,0,1,40.3548273,-3.744106,690.116567021,0.722500040531,0.0,0.0,0.0,0.722500040531,0.0,0.0,0.0,2.01639987812,1
1574069801790979219,117,1574069801790678755,base_link,0,1,40.3548275,-3.7441058,690.216567042,0.722500040531,0.0,0.0,0.0,0.722500040531,0.0,0.0,0.0,2.01639987812,1
1574069802048047718,118,1574069802047637279,base_link,0,1,40.3548278,-3.7441047,689.966566384,0.774399991608,0.0,0.0,0.0,0.774399991608,0.0,0.0,0.0,2.01639987812,1
1574069802315553542,119,1574069802315343317,base_link,0,1,40.3548282,-3.7441048,689.616566856,0.722500040531,0.0,0.0,0.0,0.722500040531,0.0,0.0,0.0,2.01639987812,1
1574069802603454068,120,1574069802603077054,base_link,0,1,40.3548286,-3.7441045,689.406566984,0.722500040531,0.0,0.0,0.0,0.722500040531,0.0,0.0,0.0,2.01639987812,1
1574069802865577448,121,1574069802865379391,base_link,0,1,40.3548293,-3.7441042,689.036567401,0.722500040531,0.0,0.0,0.0,0.722500040531,0.0,0.0,0.0,2.01639987812,1
1574069803092207637,122,1574069803091852668,base_link,0,1,40.3548296,-3.7441043,688.966567777,0.722500040531,0.0,0.0,0.0,0.722500040531,0.0,0.0,0.0,2.01639987812,1
1574069803347742906,123,1574069803347540366,base_link,0,1,40.3548299,-3.7441046,688.786568325,0.722500040531,0.0,0.0,0.0,0.722500040531,0.0,0.0,0.0,2.01639987812,1
1574069803591570149,124,1574069803591191825,base_link,0,1,40.35483,-3.7441046,688.676568421,0.722500040531,0.0,0.0,0.0,0.722500040531,0.0,0.0,0.0,2.01639987812,1
1574069803855044189,125,1574069803854779503,base_link,0,1,40.3548307,-3.744103,688.356567719,0.722500040531,0.0,0.0,0.0,0.722500040531,0.0,0.0,0.0,2.01639987812,1
1574069804134998627,126,1574069804134606814,base_link,0,1,40.354831,-3.7441027,688.26656775,0.722500040531,0.0,0.0,0.0,0.722500040531,0.0,0.0,0.0,2.01639987812,1
1574069804368212778,127,1574069804367947523,base_link,0,1,40.3548309,-3.7441027,688.356567653,0.722500040531,0.0,0.0,0.0,0.722500040531,0.0,0.0,0.0,2.01639987812,1
1574069804630343060,128,1574069804629898658,base_link,0,1,40.3548303,-3.7441026,688.376566988,0.722500040531,0.0,0.0,0.0,0.722500040531,0.0,0.0,0.0,2.01639987812,1
1574069804891626016,129,1574069804891411874,base_link,0,1,40.3548304,-3.7441019,688.376566482,0.722500040531,0.0,0.0,0.0,0.722500040531,0.0,0.0,0.0,2.01639987812,1
1574069805130537499,130,1574069805130120379,base_link,0,1,40.3548305,-3.7441015,688.316566234,0.722500040531,0.0,0.0,0.0,0.722500040531,0.0,0.0,0.0,2.01639987812,1
1574069805372611948,131,1574069805372345988,base_link,0,1,40.3548308,-3.744101,688.266566092,0.722500040531,0.0,0.0,0.0,0.722500040531,0.0,0.0,0.0,2.01639987812,1
1574069805652848879,132,1574069805652534770,base_link,0,1,40.3548319,-3.7440993,687.96656569,0.722500040531,0.0,0.0,0.0,0.722500040531,0.0,0.0,0.0,2.01639987812,1
1574069805892308934,133,1574069805892008864,base_link,0,1,40.3548325,-3.7440985,687.82656558,0.722500040531,0.0,0.0,0.0,0.722500040531,0.0,0.0,0.0,2.01639987812,1
1574069806156065145,134,1574069806155715031,base_link,0,1,40.3548334,-3.7440974,687.566565501,0.722500040531,0.0,0.0,0.0,0.722500040531,0.0,0.0,0.0,2.01639987812,1
1574069806409435140,135,1574069806409291433,base_link,0,1,40.354834,-3.7440964,687.536565219,0.722500040531,0.0,0.0,0.0,0.722500040531,0.0,0.0,0.0,2.01639987812,1
1574069806722371255,136,1574069806722073869,base_link,0,1,40.3548337,-3.7440964,686.816564929,0.722500040531,0.0,0.0,0.0,0.722500040531,0.0,0.0,0.0,2.01639987812,1
1574069807012285002,137,1574069807011902959,base_link,0,1,40.3548324,-3.7440978,686.76656488,0.722500040531,0.0,0.0,0.0,0.722500040531,0.0,0.0,0.0,2.01639987812,1
1574069807237055685,138,1574069807236729994,base_link,0,1,40.3548312,-3.7440988,686.916564583,0.722500040531,0.0,0.0,0.0,0.722500040531,0.0,0.0,0.0,2.01639987812,1
1574069807472132101,139,1574069807471957033,base_link,0,1,40.3548312,-3.7440988,686.946564583,0.722500040531,0.0,0.0,0.0,0.722500040531,0.0,0.0,0.0,2.01639987812,1
1574069807727189026,140,1574069807726736093,base_link,0,1,40.3548311,-3.744099,686.946564659,0.792099974537,0.0,0.0,0.0,0.792099974537,0.0,0.0,0.0,2.01639987812,1
1574069808001524035,141,1574069808001258251,base_link,0,1,40.3548309,-3.7440991,686.876564552,0.792099974537,0.0,0.0,0.0,0.792099974537,0.0,0.0,0.0,2.01639987812,1
1574069808232887084,142,1574069808232621495,base_link,0,1,40.3548312,-3.7440971,687.096563119,0.722500040531,0.0,0.0,0.0,0.722500040531,0.0,0.0,0.0,2.01639987812,1
1574069808494740476,143,1574069808494533496,base_link,0,1,40.3548312,-3.7440959,687.076562085,0.722500040531,0.0,0.0,0.0,0.722500040531,0.0,0.0,0.0,2.01639987812,1
1574069808754982973,144,1574069808754804234,base_link,0,1,40.3548314,-3.7440958,686.826562192,0.722500040531,0.0,0.0,0.0,0.722500040531,0.0,0.0,0.0,2.01639987812,1
1574069809010199578,145,1574069809009998056,base_link,0,1,40.3548315,-3.744095,687.0865616,0.722500040531,0.0,0.0,0.0,0.722500040531,0.0,0.0,0.0,2.01639987812,1
1574069809304431491,146,1574069809304225550,base_link,0,1,40.3548308,-3.7440928,687.446559029,0.722500040531,0.0,0.0,0.0,0.722500040531,0.0,0.0,0.0,2.01639987812,1
1574069809539368376,147,1574069809539216024,base_link,0,1,40.3548303,-3.7440934,687.196559063,0.722500040531,0.0,0.0,0.0,0.722500040531,0.0,0.0,0.0,2.01639987812,1
1574069809811250734,148,1574069809811060146,base_link,0,1,40.3548299,-3.7440943,686.926559452,0.722500040531,0.0,0.0,0.0,0.722500040531,0.0,0.0,0.0,2.01639987812,1
1574069810061989415,149,1574069810061719116,base_link,0,1,40.3548313,-3.7440922,687.426558995,0.722500040531,0.0,0.0,0.0,0.722500040531,0.0,0.0,0.0,2.01639987812,1
1574069810307112510,150,1574069810306946966,base_link,0,1,40.3548316,-3.7440909,687.716558165,0.722500040531,0.0,0.0,0.0,0.722500040531,0.0,0.0,0.0,2.01639987812,1
1574069810571157215,151,1574069810570948850,base_link,0,1,40.3548316,-3.74409,687.756557389,0.722500040531,0.0,0.0,0.0,0.722500040531,0.0,0.0,0.0,2.01639987812,1
1574069810829093757,152,1574069810828868139,base_link,0,1,40.3548318,-3.744088,688.23655586,0.722500040531,0.0,0.0,0.0,0.722500040531,0.0,0.0,0.0,2.01639987812,1
1574069811087913105,153,1574069811087538356,base_link,0,1,40.354832,-3.7440865,688.336554761,0.722500040531,0.0,0.0,0.0,0.722500040531,0.0,0.0,0.0,2.01639987812,1
1574069811351809787,154,1574069811351642535,base_link,0,1,40.3548324,-3.7440851,688.326553941,0.722500040531,0.0,0.0,0.0,0.722500040531,0.0,0.0,0.0,2.01639987812,1
1574069811587924640,155,1574069811587538483,base_link,0,1,40.3548327,-3.7440846,688.1665538,0.722500040531,0.0,0.0,0.0,0.722500040531,0.0,0.0,0.0,2.01639987812,1
1574069811851818330,156,1574069811851596262,base_link,0,1,40.3548346,-3.7440847,688.20655572,0.722500040531,0.0,0.0,0.0,0.722500040531,0.0,0.0,0.0,2.01639987812,1
1574069812116625798,157,1574069812116268433,base_link,0,1,40.3548356,-3.7440847,688.276556685,0.722500040531,0.0,0.0,0.0,0.722500040531,0.0,0.0,0.0,2.01639987812,1
1574069812398091317,158,1574069812397945047,base_link,0,1,40.3548363,-3.7440845,688.516557189,0.722500040531,0.0,0.0,0.0,0.722500040531,0.0,0.0,0.0,2.01639987812,1
1574069812629524904,159,1574069812629328301,base_link,0,1,40.3548357,-3.7440838,690.076556006,0.722500040531,0.0,0.0,0.0,0.722500040531,0.0,0.0,0.0,2.01639987812,1
1574069812889499310,160,1574069812889108593,base_link,0,1,40.3548359,-3.7440838,690.3665562,0.722500040531,0.0,0.0,0.0,0.722500040531,0.0,0.0,0.0,2.01639987812,1
1574069813175333629,161,1574069813174973830,base_link,0,1,40.3548364,-3.7440838,690.356556682,0.722500040531,0.0,0.0,0.0,0.722500040531,0.0,0.0,0.0,2.01639987812,1
1574069813430540331,162,1574069813430320781,base_link,0,1,40.3548367,-3.7440831,690.316556369,0.722500040531,0.0,0.0,0.0,0.722500040531,0.0,0.0,0.0,2.01639987812,1
1574069813722451144,163,1574069813722056312,base_link,0,1,40.3548368,-3.7440821,690.466555604,0.722500040531,0.0,0.0,0.0,0.722500040531,0.0,0.0,0.0,2.01639987812,1
1574069813946750292,164,1574069813946610324,base_link,0,1,40.354837,-3.7440815,690.43655528,0.722500040531,0.0,0.0,0.0,0.722500040531,0.0,0.0,0.0,2.01639987812,1
1574069814210957104,165,1574069814210551324,base_link,0,1,40.3548372,-3.7440807,690.556554784,0.722500040531,0.0,0.0,0.0,0.722500040531,0.0,0.0,0.0,2.01639987812,1
1574069814476879556,166,1574069814476657047,base_link,0,1,40.3548367,-3.7440804,690.716554043,0.722500040531,0.0,0.0,0.0,0.722500040531,0.0,0.0,0.0,2.01639987812,1
1574069814734646409,167,1574069814734255500,base_link,0,1,40.3548362,-3.7440813,690.976554336,0.792099974537,0.0,0.0,0.0,0.792099974537,0.0,0.0,0.0,2.49640013561,1
1574069814970317735,168,1574069814970048659,base_link,0,1,40.3548361,-3.7440818,691.33655467,0.792099974537,0.0,0.0,0.0,0.792099974537,0.0,0.0,0.0,2.49640013561,1
1574069815249721301,169,1574069815249370392,base_link,0,1,40.3548361,-3.7440815,691.726554411,0.722500040531,0.0,0.0,0.0,0.722500040531,0.0,0.0,0.0,2.01639987812,1
1574069815472527158,170,1574069815472264106,base_link,0,1,40.354836,-3.7440815,692.366554315,0.792099974537,0.0,0.0,0.0,0.792099974537,0.0,0.0,0.0,2.49640013561,1
1574069815706730995,171,1574069815706541466,base_link,0,1,40.3548363,-3.7440823,692.496555294,0.792099974537,0.0,0.0,0.0,0.792099974537,0.0,0.0,0.0,2.49640013561,1
1574069815952857401,172,1574069815952530027,base_link,0,1,40.3548363,-3.744083,692.736555897,0.722500040531,0.0,0.0,0.0,0.722500040531,0.0,0.0,0.0,2.01639987812,1
1574069816190080794,173,1574069816189851645,base_link,0,1,40.354836,-3.7440835,692.886556038,0.722500040531,0.0,0.0,0.0,0.722500040531,0.0,0.0,0.0,2.01639987812,1
1574069816430172192,174,1574069816429679521,base_link,0,1,40.3548356,-3.7440839,692.936555996,0.722500040531,0.0,0.0,0.0,0.722500040531,0.0,0.0,0.0,2.01639987812,1
1574069816666661489,175,1574069816666500837,base_link,0,1,40.3548347,-3.744084,693.186555213,0.792099974537,0.0,0.0,0.0,0.792099974537,0.0,0.0,0.0,2.49640013561,1
1574069816909783128,176,1574069816909471876,base_link,0,1,40.354834,-3.7440841,693.246554624,0.722500040531,0.0,0.0,0.0,0.722500040531,0.0,0.0,0.0,2.01639987812,1
1574069817145682404,177,1574069817145539532,base_link,0,1,40.3548332,-3.7440843,693.436554024,0.722500040531,0.0,0.0,0.0,0.722500040531,0.0,0.0,0.0,2.01639987812,1
1574069817413126051,178,1574069817412937096,base_link,0,1,40.3548326,-3.7440841,693.606553273,0.722500040531,0.0,0.0,0.0,0.722500040531,0.0,0.0,0.0,2.01639987812,1
1574069817659910882,179,1574069817659696176,base_link,0,1,40.3548316,-3.7440841,693.966552307,0.722500040531,0.0,0.0,0.0,0.722500040531,0.0,0.0,0.0,2.01639987812,1
1574069817866000279,180,1574069817865550122,base_link,0,1,40.354831,-3.744084,694.226551642,0.722500040531,0.0,0.0,0.0,0.722500040531,0.0,0.0,0.0,2.01639987812,1
1574069818105147552,181,1574069818104938770,base_link,0,1,40.3548306,-3.744084,694.386551256,0.722500040531,0.0,0.0,0.0,0.722500040531,0.0,0.0,0.0,2.01639987812,1
1574069818366126361,182,1574069818365631278,base_link,0,1,40.3548303,-3.7440841,694.466551052,0.722500040531,0.0,0.0,0.0,0.722500040531,0.0,0.0,0.0,2.01639987812,1
1574069818625446295,183,1574069818625250495,base_link,0,1,40.35483,-3.744084,694.496550677,0.722500040531,0.0,0.0,0.0,0.722500040531,0.0,0.0,0.0,2.01639987812,1
1574069818873643762,184,1574069818873340310,base_link,0,1,40.3548302,-3.7440843,694.896551128,0.722500040531,0.0,0.0,0.0,0.722500040531,0.0,0.0,0.0,2.01639987812,1
1574069819114961453,185,1574069819114722722,base_link,0,1,40.3548305,-3.7440847,695.096551762,0.722500040531,0.0,0.0,0.0,0.722500040531,0.0,0.0,0.0,2.01639987812,1
1574069819347062013,186,1574069819346638722,base_link,0,1,40.3548307,-3.7440852,695.256552386,0.722500040531,0.0,0.0,0.0,0.722500040531,0.0,0.0,0.0,2.01639987812,1
1574069819590853671,187,1574069819590613147,base_link,0,1,40.3548308,-3.7440855,695.436552741,0.722500040531,0.0,0.0,0.0,0.722500040531,0.0,0.0,0.0,2.01639987812,1
1574069819866236724,188,1574069819865741991,base_link,0,1,40.3548314,-3.7440846,695.466552545,0.960400037384,0.0,0.0,0.0,0.960400037384,0.0,0.0,0.0,4.28489972363,1
1574069820065423068,189,1574069820065223180,base_link,0,1,40.3548319,-3.7440847,695.486553114,0.960400037384,0.0,0.0,0.0,0.960400037384,0.0,0.0,0.0,4.28489972363,1
1574069820330287244,190,1574069820329837434,base_link,0,1,40.354832,-3.7440847,695.70655321,0.722500040531,0.0,0.0,0.0,0.722500040531,0.0,0.0,0.0,2.01639987812,1
1574069820574541029,191,1574069820574356051,base_link,0,1,40.3548317,-3.744085,695.766553179,0.722500040531,0.0,0.0,0.0,0.722500040531,0.0,0.0,0.0,2.01639987812,1
1574069820812956291,192,1574069820812592763,base_link,0,1,40.3548318,-3.7440855,695.626553706,0.960400037384,0.0,0.0,0.0,0.960400037384,0.0,0.0,0.0,4.28489972363,1
1574069821051921530,193,1574069821051706969,base_link,0,1,40.3548315,-3.7440846,695.526552641,0.960400037384,0.0,0.0,0.0,0.960400037384,0.0,0.0,0.0,4.28489972363,1
1574069821295440222,194,1574069821295250515,base_link,0,1,40.3548309,-3.7440848,695.326552235,0.960400037384,0.0,0.0,0.0,0.960400037384,0.0,0.0,0.0,4.28489972363,1
1574069821535616153,195,1574069821535376977,base_link,0,1,40.3548302,-3.744085,695.166551731,0.960400037384,0.0,0.0,0.0,0.960400037384,0.0,0.0,0.0,4.28489972363,1
1574069821771303572,196,1574069821771080456,base_link,0,1,40.3548297,-3.7440851,694.976551335,0.960400037384,0.0,0.0,0.0,0.960400037384,0.0,0.0,0.0,4.28489972363,1
1574069822091625277,197,1574069822091474015,base_link,0,1,40.354829,-3.744085,694.786550573,0.960400037384,0.0,0.0,0.0,0.960400037384,0.0,0.0,0.0,4.28489972363,1
1574069822356942493,198,1574069822356544869,base_link,0,1,40.3548287,-3.7440846,694.536549939,0.960400037384,0.0,0.0,0.0,0.960400037384,0.0,0.0,0.0,4.28489972363,1
1574069822537457812,199,1574069822537068077,base_link,0,1,40.3548284,-3.7440843,694.386549391,0.960400037384,0.0,0.0,0.0,0.960400037384,0.0,0.0,0.0,4.28489972363,1
1574069822791384991,200,1574069822791135261,base_link,0,1,40.3548286,-3.7440845,694.246549756,0.960400037384,0.0,0.0,0.0,0.960400037384,0.0,0.0,0.0,4.28489972363,1
1574069823022954777,201,1574069823022498809,base_link,0,1,40.3548285,-3.7440852,694.146550263,0.960400037384,0.0,0.0,0.0,0.960400037384,0.0,0.0,0.0,4.28489972363,1
1574069823295665665,202,1574069823295346959,base_link,0,1,40.3548284,-3.7440858,694.106550683,0.960400037384,0.0,0.0,0.0,0.960400037384,0.0,0.0,0.0,4.28489972363,1
1574069823510201321,203,1574069823509710831,base_link,0,1,40.3548282,-3.7440858,693.96655049,0.960400037384,0.0,0.0,0.0,0.960400037384,0.0,0.0,0.0,4.28489972363,1
1574069823747629635,204,1574069823747410120,base_link,0,1,40.3548281,-3.744086,693.696550566,0.960400037384,0.0,0.0,0.0,0.960400037384,0.0,0.0,0.0,4.28489972363,1
1574069823990256552,205,1574069823989811959,base_link,0,1,40.3548281,-3.7440863,693.656550824,0.960400037384,0.0,0.0,0.0,0.960400037384,0.0,0.0,0.0,4.28489972363,1
1574069824246661728,206,1574069824246463954,base_link,0,1,40.3548284,-3.7440869,693.45655163,0.960400037384,0.0,0.0,0.0,0.960400037384,0.0,0.0,0.0,4.28489972363,1
1574069824532669819,207,1574069824532252711,base_link,0,1,40.354829,-3.7440876,693.176552812,0.960400037384,0.0,0.0,0.0,0.960400037384,0.0,0.0,0.0,4.28489972363,1
1574069824704882704,208,1574069824704721692,base_link,0,1,40.3548287,-3.7440876,692.926552523,0.960400037384,0.0,0.0,0.0,0.960400037384,0.0,0.0,0.0,4.28489972363,1
1574069824953066173,209,1574069824952643425,base_link,0,1,40.3548283,-3.7440883,692.51655274,0.960400037384,0.0,0.0,0.0,0.960400037384,0.0,0.0,0.0,4.28489972363,1
1574069825205480659,210,1574069825205327609,base_link,0,1,40.354828,-3.7440891,692.216553139,0.960400037384,0.0,0.0,0.0,0.960400037384,0.0,0.0,0.0,4.28489972363,1
1574069825444468614,211,1574069825444065860,base_link,0,1,40.3548283,-3.7440883,692.07655274,0.960400037384,0.0,0.0,0.0,0.960400037384,0.0,0.0,0.0,4.28489972363,1
1574069825684707768,212,1574069825684559110,base_link,0,1,40.354828,-3.744087,691.94655133,0.960400037384,0.0,0.0,0.0,0.960400037384,0.0,0.0,0.0,6.8120994524,1
1574069825925597395,213,1574069825925425719,base_link,0,1,40.3548277,-3.7440861,691.756550266,0.960400037384,0.0,0.0,0.0,0.960400037384,0.0,0.0,0.0,6.8120994524,1
1574069826166620771,214,1574069826166446603,base_link,0,1,40.3548275,-3.7440857,691.666549728,0.960400037384,0.0,0.0,0.0,0.960400037384,0.0,0.0,0.0,6.8120994524,1
1574069826430205996,215,1574069826429977023,base_link,0,1,40.3548277,-3.7440848,691.376549146,0.960400037384,0.0,0.0,0.0,0.960400037384,0.0,0.0,0.0,6.8120994524,1
1574069826662957082,216,1574069826662821140,base_link,0,1,40.3548271,-3.7440841,690.996547964,0.960400037384,0.0,0.0,0.0,0.960400037384,0.0,0.0,0.0,6.8120994524,1
1574069826904269177,217,1574069826904070702,base_link,0,1,40.3548268,-3.7440834,690.956547071,0.960400037384,0.0,0.0,0.0,0.960400037384,0.0,0.0,0.0,6.8120994524,1
1574069827144423554,218,1574069827144176727,base_link,0,1,40.3548271,-3.7440823,690.826546413,0.960400037384,0.0,0.0,0.0,0.960400037384,0.0,0.0,0.0,6.8120994524,1
1574069827388819345,219,1574069827388566350,base_link,0,1,40.3548272,-3.7440818,690.576546079,0.960400037384,0.0,0.0,0.0,0.960400037384,0.0,0.0,0.0,6.8120994524,1
1574069827625419967,220,1574069827625070797,base_link,0,1,40.3548269,-3.7440818,690.39654579,0.960400037384,0.0,0.0,0.0,0.960400037384,0.0,0.0,0.0,6.8120994524,1
1574069827863821896,221,1574069827863586351,base_link,0,1,40.3548258,-3.7440808,690.496543867,0.960400037384,0.0,0.0,0.0,0.960400037384,0.0,0.0,0.0,6.8120994524,1
1574069828110706026,222,1574069828110349288,base_link,0,1,40.3548253,-3.7440803,690.186542954,0.792099974537,0.0,0.0,0.0,0.792099974537,0.0,0.0,0.0,2.49640013561,1
1574069828352089694,223,1574069828351842033,base_link,0,1,40.354825,-3.7440794,690.156541889,0.960400037384,0.0,0.0,0.0,0.960400037384,0.0,0.0,0.0,6.8120994524,1
1574069828614987366,224,1574069828614574152,base_link,0,1,40.3548249,-3.7440789,690.346541362,0.960400037384,0.0,0.0,0.0,0.960400037384,0.0,0.0,0.0,6.8120994524,1
1574069828849412859,225,1574069828849179347,base_link,0,1,40.3548245,-3.7440796,689.656541579,0.960400037384,0.0,0.0,0.0,0.960400037384,0.0,0.0,0.0,6.8120994524,1
1574069829072931845,226,1574069829072583252,base_link,0,1,40.354825,-3.7440798,689.536542233,0.960400037384,0.0,0.0,0.0,0.960400037384,0.0,0.0,0.0,6.8120994524,1
1574069829317399944,227,1574069829317171931,base_link,0,1,40.3548256,-3.7440793,689.466542382,0.960400037384,0.0,0.0,0.0,0.960400037384,0.0,0.0,0.0,6.8120994524,1
1574069829544406002,228,1574069829544033520,base_link,0,1,40.3548258,-3.7440781,689.436541541,0.960400037384,0.0,0.0,0.0,0.960400037384,0.0,0.0,0.0,6.8120994524,1
1574069829792296698,229,1574069829792110575,base_link,0,1,40.354826,-3.7440774,689.436541131,0.960400037384,0.0,0.0,0.0,0.960400037384,0.0,0.0,0.0,6.8120994524,1
1574069830039131953,230,1574069830038719633,base_link,0,1,40.3548263,-3.7440768,689.426540904,0.960400037384,0.0,0.0,0.0,0.960400037384,0.0,0.0,0.0,6.8120994524,1
1574069830290816335,231,1574069830290654519,base_link,0,1,40.3548272,-3.7440757,689.406540825,0.960400037384,0.0,0.0,0.0,0.960400037384,0.0,0.0,0.0,6.8120994524,1
1574069830529636875,232,1574069830529285351,base_link,0,1,40.3548275,-3.7440751,689.526540598,0.960400037384,0.0,0.0,0.0,0.960400037384,0.0,0.0,0.0,6.8120994524,1
1574069830791430637,233,1574069830791330648,base_link,0,1,40.3548279,-3.7440747,689.70654064,0.960400037384,0.0,0.0,0.0,0.960400037384,0.0,0.0,0.0,6.8120994524,1
1574069831024416399,234,1574069831024004873,base_link,0,1,40.3548284,-3.7440746,689.466541036,0.960400037384,0.0,0.0,0.0,0.960400037384,0.0,0.0,0.0,6.8120994524,1
1574069831263620069,235,1574069831263407758,base_link,0,1,40.3548285,-3.7440746,689.626541133,0.960400037384,0.0,0.0,0.0,0.960400037384,0.0,0.0,0.0,6.8120994524,1
1574069831533098710,236,1574069831532676266,base_link,0,1,40.3548287,-3.7440746,689.786541326,0.960400037384,0.0,0.0,0.0,0.960400037384,0.0,0.0,0.0,6.8120994524,1
1574069831791743772,237,1574069831791582042,base_link,0,1,40.3548289,-3.744075,689.596541863,0.960400037384,0.0,0.0,0.0,0.960400037384,0.0,0.0,0.0,6.8120994524,1
1574069832007991489,238,1574069832007529858,base_link,0,1,40.3548287,-3.7440748,689.486541498,0.960400037384,0.0,0.0,0.0,0.960400037384,0.0,0.0,0.0,4.28489972363,1
1574069832254525489,239,1574069832254306559,base_link,0,1,40.3548281,-3.7440742,689.456540402,0.960400037384,0.0,0.0,0.0,0.960400037384,0.0,0.0,0.0,4.28489972363,1
1574069832485407548,240,1574069832485223963,base_link,0,1,40.3548282,-3.7440741,689.416540412,0.960400037384,0.0,0.0,0.0,0.960400037384,0.0,0.0,0.0,4.28489972363,1
1574069832729515498,241,1574069832729287177,base_link,0,1,40.3548284,-3.7440739,689.176540433,0.960400037384,0.0,0.0,0.0,0.960400037384,0.0,0.0,0.0,4.28489972363,1
1574069832989902335,242,1574069832989707035,base_link,0,1,40.3548285,-3.7440737,689.206540357,0.960400037384,0.0,0.0,0.0,0.960400037384,0.0,0.0,0.0,4.28489972363,1
1574069833225004987,243,1574069833224778263,base_link,0,1,40.3548286,-3.7440737,689.276540454,0.960400037384,0.0,0.0,0.0,0.960400037384,0.0,0.0,0.0,4.28489972363,1
1574069833467827894,244,1574069833467668990,base_link,0,1,40.3548295,-3.7440747,689.076542184,0.960400037384,0.0,0.0,0.0,0.960400037384,0.0,0.0,0.0,4.28489972363,1
1574069833730191616,245,1574069833729857033,base_link,0,1,40.3548299,-3.7440748,689.106542656,0.960400037384,0.0,0.0,0.0,0.960400037384,0.0,0.0,0.0,4.28489972363,1
1574069833985650291,246,1574069833985214824,base_link,0,1,40.3548304,-3.744075,689.026543311,0.960400037384,0.0,0.0,0.0,0.960400037384,0.0,0.0,0.0,4.28489972363,1
1574069834232970555,247,1574069834232573178,base_link,0,1,40.3548308,-3.7440752,688.986543869,0.960400037384,0.0,0.0,0.0,0.960400037384,0.0,0.0,0.0,4.28489972363,1
1574069834455364995,248,1574069834455194523,base_link,0,1,40.3548309,-3.7440755,689.226544224,0.960400037384,0.0,0.0,0.0,0.960400037384,0.0,0.0,0.0,4.28489972363,1
1574069834684070663,249,1574069834683787788,base_link,0,1,40.3548309,-3.7440756,689.23654431,0.960400037384,0.0,0.0,0.0,0.960400037384,0.0,0.0,0.0,4.28489972363,1
1574069834929039188,250,1574069834928826088,base_link,0,1,40.3548308,-3.7440758,689.326544386,0.960400037384,0.0,0.0,0.0,0.960400037384,0.0,0.0,0.0,4.28489972363,1
1574069835187231439,251,1574069835186850492,base_link,0,1,40.3548307,-3.7440759,689.346544376,0.960400037384,0.0,0.0,0.0,0.960400037384,0.0,0.0,0.0,4.28489972363,1
1574069835432050387,252,1574069835431864031,base_link,0,1,40.3548306,-3.7440759,689.376544279,0.960400037384,0.0,0.0,0.0,0.960400037384,0.0,0.0,0.0,4.28489972363,1
1574069835665111178,253,1574069835664744907,base_link,0,1,40.3548306,-3.7440762,689.316544538,0.960400037384,0.0,0.0,0.0,0.960400037384,0.0,0.0,0.0,4.28489972363,1
1574069835907496015,254,1574069835907317954,base_link,0,1,40.3548306,-3.7440761,689.176544451,0.960400037384,0.0,0.0,0.0,0.960400037384,0.0,0.0,0.0,4.28489972363,1
1574069836151239496,255,1574069836150878678,base_link,0,1,40.3548303,-3.7440758,689.166543903,0.960400037384,0.0,0.0,0.0,0.960400037384,0.0,0.0,0.0,4.28489972363,1
1574069836389696665,256,1574069836389537337,base_link,0,1,40.3548299,-3.7440754,689.026543173,0.960400037384,0.0,0.0,0.0,0.960400037384,0.0,0.0,0.0,4.28489972363,1
1574069836660757269,257,1574069836660340253,base_link,0,1,40.3548296,-3.7440752,689.056542711,0.960400037384,0.0,0.0,0.0,0.960400037384,0.0,0.0,0.0,4.28489972363,1
1574069836864922051,258,1574069836864776227,base_link,0,1,40.3548291,-3.744076,689.036542917,0.960400037384,0.0,0.0,0.0,0.960400037384,0.0,0.0,0.0,4.28489972363,1
1574069837105901664,259,1574069837105582842,base_link,0,1,40.3548288,-3.7440766,689.056543145,0.960400037384,0.0,0.0,0.0,0.960400037384,0.0,0.0,0.0,4.28489972363,1
1574069837354438036,260,1574069837354243031,base_link,0,1,40.3548284,-3.7440774,689.126543448,0.960400037384,0.0,0.0,0.0,0.960400037384,0.0,0.0,0.0,4.28489972363,1
1574069837591357974,261,1574069837591173339,base_link,0,1,40.3548282,-3.744078,689.196543771,0.960400037384,0.0,0.0,0.0,0.960400037384,0.0,0.0,0.0,4.28489972363,1
1574069837830595206,262,1574069837830290183,base_link,0,1,40.3548281,-3.7440787,689.216544278,0.960400037384,0.0,0.0,0.0,0.960400037384,0.0,0.0,0.0,6.8120994524,1
1574069838062366909,263,1574069838062194160,base_link,0,1,40.3548282,-3.7440797,689.026545236,0.960400037384,0.0,0.0,0.0,0.960400037384,0.0,0.0,0.0,4.28489972363,1
1574069838309066897,264,1574069838308674932,base_link,0,1,40.3548281,-3.7440799,689.036545311,0.960400037384,0.0,0.0,0.0,0.960400037384,0.0,0.0,0.0,4.28489972363,1
1574069838551935568,265,1574069838551727501,base_link,0,1,40.3548284,-3.7440801,688.986545773,0.960400037384,0.0,0.0,0.0,0.960400037384,0.0,0.0,0.0,4.28489972363,1
1574069838784778405,266,1574069838784384114,base_link,0,1,40.3548288,-3.7440802,688.796546245,0.960400037384,0.0,0.0,0.0,0.960400037384,0.0,0.0,0.0,4.28489972363,1
1574069839031157242,267,1574069839030960962,base_link,0,1,40.3548291,-3.7440812,688.486547396,0.960400037384,0.0,0.0,0.0,0.960400037384,0.0,0.0,0.0,4.28489972363,1
1574069839267121127,268,1574069839266731168,base_link,0,1,40.354829,-3.7440816,688.626547644,0.960400037384,0.0,0.0,0.0,0.960400037384,0.0,0.0,0.0,4.28489972363,1
1574069839504432722,269,1574069839504223153,base_link,0,1,40.3548291,-3.7440819,688.556547999,0.960400037384,0.0,0.0,0.0,0.960400037384,0.0,0.0,0.0,4.28489972363,1
1574069839767594519,270,1574069839767250747,base_link,0,1,40.354829,-3.7440822,688.386548161,0.960400037384,0.0,0.0,0.0,0.960400037384,0.0,0.0,0.0,4.28489972363,1
1574069839995022020,271,1574069839994706123,base_link,0,1,40.3548289,-3.7440826,688.256548409,0.960400037384,0.0,0.0,0.0,0.960400037384,0.0,0.0,0.0,4.28489972363,1
1574069840229503304,272,1574069840229057445,base_link,0,1,40.3548289,-3.7440828,688.096548581,0.960400037384,0.0,0.0,0.0,0.960400037384,0.0,0.0,0.0,4.28489972363,1
1574069840489164337,273,1574069840489003080,base_link,0,1,40.3548291,-3.7440828,687.886548774,0.960400037384,0.0,0.0,0.0,0.960400037384,0.0,0.0,0.0,4.28489972363,1
1574069840715086634,274,1574069840714706489,base_link,0,1,40.3548292,-3.7440826,687.726548699,0.960400037384,0.0,0.0,0.0,0.960400037384,0.0,0.0,0.0,4.28489972363,1
1574069840961148042,275,1574069840960974947,base_link,0,1,40.3548292,-3.744082,687.606548182,0.960400037384,0.0,0.0,0.0,0.960400037384,0.0,0.0,0.0,4.28489972363,1
1574069841215224865,276,1574069841214814103,base_link,0,1,40.3548292,-3.7440813,687.576547579,0.960400037384,0.0,0.0,0.0,0.960400037384,0.0,0.0,0.0,4.28489972363,1
1574069841492398609,277,1574069841492193631,base_link,0,1,40.3548296,-3.7440805,687.366547276,0.960400037384,0.0,0.0,0.0,0.960400037384,0.0,0.0,0.0,4.28489972363,1
1574069841737360415,278,1574069841736940195,base_link,0,1,40.3548303,-3.7440801,687.216547607,0.960400037384,0.0,0.0,0.0,0.960400037384,0.0,0.0,0.0,4.28489972363,1
1574069842033545430,279,1574069842033352076,base_link,0,1,40.354831,-3.7440801,687.076548283,0.960400037384,0.0,0.0,0.0,0.960400037384,0.0,0.0,0.0,4.28489972363,1
1574069842294868385,280,1574069842294534298,base_link,0,1,40.3548315,-3.7440802,686.946548852,0.960400037384,0.0,0.0,0.0,0.960400037384,0.0,0.0,0.0,4.28489972363,1
1574069842484216603,281,1574069842484033823,base_link,0,1,40.3548324,-3.7440799,686.556549462,0.960400037384,0.0,0.0,0.0,0.960400037384,0.0,0.0,0.0,4.28489972363,1
1574069842731014075,282,1574069842730647363,base_link,0,1,40.3548326,-3.7440797,686.446549483,0.960400037384,0.0,0.0,0.0,0.960400037384,0.0,0.0,0.0,4.28489972363,1
1574069842976735899,283,1574069842976518712,base_link,0,1,40.3548327,-3.7440796,686.256549493,0.960400037384,0.0,0.0,0.0,0.960400037384,0.0,0.0,0.0,4.28489972363,1
1574069843206972374,284,1574069843206561685,base_link,0,1,40.3548328,-3.7440797,686.076549676,0.960400037384,0.0,0.0,0.0,0.960400037384,0.0,0.0,0.0,4.28489972363,1
1574069843465410556,285,1574069843465265317,base_link,0,1,40.3548324,-3.7440802,685.91654972,0.960400037384,0.0,0.0,0.0,0.960400037384,0.0,0.0,0.0,4.28489972363,1
1574069843734727203,286,1574069843734316736,base_link,0,1,40.354832,-3.7440805,685.916549593,0.960400037384,0.0,0.0,0.0,0.960400037384,0.0,0.0,0.0,4.28489972363,1
1574069843975299305,287,1574069843975125053,base_link,0,1,40.3548319,-3.7440808,685.916549754,0.960400037384,0.0,0.0,0.0,0.960400037384,0.0,0.0,0.0,4.28489972363,1
1574069844207988891,288,1574069844207829033,base_link,0,1,40.3548321,-3.7440809,685.916550034,0.960400037384,0.0,0.0,0.0,0.960400037384,0.0,0.0,0.0,4.28489972363,1
1574069844446970546,289,1574069844446625922,base_link,0,1,40.3548324,-3.744081,685.826550409,0.960400037384,0.0,0.0,0.0,0.960400037384,0.0,0.0,0.0,4.28489972363,1
1574069844691301166,290,1574069844691114794,base_link,0,1,40.3548329,-3.744081,685.756550892,0.960400037384,0.0,0.0,0.0,0.960400037384,0.0,0.0,0.0,4.28489972363,1
1574069844935188047,291,1574069844934734006,base_link,0,1,40.3548334,-3.7440813,685.646551633,0.960400037384,0.0,0.0,0.0,0.960400037384,0.0,0.0,0.0,4.28489972363,1
1574069845189610892,292,1574069845189333800,base_link,0,1,40.3548337,-3.7440813,685.616551923,0.960400037384,0.0,0.0,0.0,0.960400037384,0.0,0.0,0.0,4.28489972363,1
1574069845430710361,293,1574069845430302711,base_link,0,1,40.3548341,-3.7440815,685.586552481,0.960400037384,0.0,0.0,0.0,0.960400037384,0.0,0.0,0.0,4.28489972363,1
1574069845646902471,294,1574069845646609848,base_link,0,1,40.3548346,-3.7440818,684.996553222,0.960400037384,0.0,0.0,0.0,0.960400037384,0.0,0.0,0.0,4.28489972363,1
1574069845904696647,295,1574069845904275649,base_link,0,1,40.354835,-3.744082,685.01655378,0.960400037384,0.0,0.0,0.0,0.960400037384,0.0,0.0,0.0,4.28489972363,1
1574069846147162839,296,1574069846146952568,base_link,0,1,40.3548352,-3.7440824,684.736554318,0.960400037384,0.0,0.0,0.0,0.960400037384,0.0,0.0,0.0,4.28489972363,1
1574069846393271055,297,1574069846392842269,base_link,0,1,40.3548348,-3.7440832,684.686554621,0.960400037384,0.0,0.0,0.0,0.960400037384,0.0,0.0,0.0,4.28489972363,1
1574069846630433326,298,1574069846630238813,base_link,0,1,40.3548347,-3.7440839,684.636555127,0.960400037384,0.0,0.0,0.0,0.960400037384,0.0,0.0,0.0,4.28489972363,1
1574069846870334502,299,1574069846869955085,base_link,0,1,40.3548343,-3.7440844,684.656555172,0.960400037384,0.0,0.0,0.0,0.960400037384,0.0,0.0,0.0,4.28489972363,1
1574069847112686162,300,1574069847112553253,base_link,0,1,40.354834,-3.7440844,684.826554882,0.960400037384,0.0,0.0,0.0,0.960400037384,0.0,0.0,0.0,4.28489972363,1
1574069847352480888,301,1574069847352100527,base_link,0,1,40.3548338,-3.7440848,684.886555034,0.960400037384,0.0,0.0,0.0,0.960400037384,0.0,0.0,0.0,4.28489972363,1
1574069847591798437,302,1574069847591624757,base_link,0,1,40.3548336,-3.7440848,684.936554841,0.960400037384,0.0,0.0,0.0,0.960400037384,0.0,0.0,0.0,4.28489972363,1
1574069847831916740,303,1574069847831537783,base_link,0,1,40.3548334,-3.7440849,684.816554734,0.960400037384,0.0,0.0,0.0,0.960400037384,0.0,0.0,0.0,4.28489972363,1
1574069848068479674,304,1574069848068134488,base_link,0,1,40.3548329,-3.7440848,684.716554165,0.960400037384,0.0,0.0,0.0,0.960400037384,0.0,0.0,0.0,4.28489972363,1
1574069848309657523,305,1574069848309379599,base_link,0,1,40.3548327,-3.7440843,684.726553541,0.960400037384,0.0,0.0,0.0,0.960400037384,0.0,0.0,0.0,4.28489972363,1
1574069848550360716,306,1574069848549868927,base_link,0,1,40.3548331,-3.7440832,684.93655298,0.960400037384,0.0,0.0,0.0,0.960400037384,0.0,0.0,0.0,4.28489972363,1
1574069848790727358,307,1574069848790522398,base_link,0,1,40.354834,-3.7440827,685.116553418,0.960400037384,0.0,0.0,0.0,0.960400037384,0.0,0.0,0.0,4.28489972363,1
1574069849029801197,308,1574069849029556977,base_link,0,1,40.354835,-3.7440822,685.386553953,0.960400037384,0.0,0.0,0.0,0.960400037384,0.0,0.0,0.0,4.28489972363,1
1574069849272868698,309,1574069849272696413,base_link,0,1,40.3548371,-3.7440804,686.336554429,0.960400037384,0.0,0.0,0.0,0.960400037384,0.0,0.0,0.0,4.28489972363,1
1574069849509811951,310,1574069849509438959,base_link,0,1,40.3548382,-3.7440794,686.28655463,0.960400037384,0.0,0.0,0.0,0.960400037384,0.0,0.0,0.0,4.28489972363,1
1574069849750239324,311,1574069849750118390,base_link,0,1,40.3548386,-3.7440788,686.386554499,0.960400037384,0.0,0.0,0.0,0.960400037384,0.0,0.0,0.0,4.28489972363,1
1574069849992943809,312,1574069849992541129,base_link,0,1,40.3548386,-3.7440778,686.236553638,0.960400037384,0.0,0.0,0.0,0.960400037384,0.0,0.0,0.0,4.28489972363,1
1574069850230447580,313,1574069850230264989,base_link,0,1,40.354838,-3.7440768,686.096552197,0.960400037384,0.0,0.0,0.0,0.960400037384,0.0,0.0,0.0,4.28489972363,1
1574069850472114011,314,1574069850471695451,base_link,0,1,40.3548383,-3.7440755,685.766551367,0.960400037384,0.0,0.0,0.0,0.960400037384,0.0,0.0,0.0,4.28489972363,1
1574069850713979716,315,1574069850713726206,base_link,0,1,40.3548387,-3.7440745,685.816550892,0.960400037384,0.0,0.0,0.0,0.960400037384,0.0,0.0,0.0,4.28489972363,1
1574069850946903512,316,1574069850946552013,base_link,0,1,40.3548393,-3.7440742,685.676551213,0.960400037384,0.0,0.0,0.0,0.960400037384,0.0,0.0,0.0,4.28489972363,1
1574069851189941719,317,1574069851189759477,base_link,0,1,40.35484,-3.7440741,685.706551802,0.960400037384,0.0,0.0,0.0,0.960400037384,0.0,0.0,0.0,4.28489972363,1
1574069851430018121,318,1574069851429588475,base_link,0,1,40.3548405,-3.7440737,685.466551941,0.960400037384,0.0,0.0,0.0,0.960400037384,0.0,0.0,0.0,4.28489972363,1
1574069851664787837,319,1574069851664613600,base_link,0,1,40.3548407,-3.7440731,685.096551617,0.960400037384,0.0,0.0,0.0,0.960400037384,0.0,0.0,0.0,4.28489972363,1
1574069851910370522,320,1574069851909868390,base_link,0,1,40.354841,-3.7440727,684.906551562,0.960400037384,0.0,0.0,0.0,0.960400037384,0.0,0.0,0.0,4.28489972363,1
1574069852157692432,321,1574069852157427954,base_link,0,1,40.3548412,-3.7440723,684.716551411,0.960400037384,0.0,0.0,0.0,0.960400037384,0.0,0.0,0.0,4.28489972363,1
1574069852391451138,322,1574069852391086264,base_link,0,1,40.3548414,-3.7440715,684.766550915,0.960400037384,0.0,0.0,0.0,0.960400037384,0.0,0.0,0.0,4.28489972363,1
1574069852628782026,323,1574069852628611283,base_link,0,1,40.3548414,-3.744071,684.706550484,0.960400037384,0.0,0.0,0.0,0.960400037384,0.0,0.0,0.0,4.28489972363,1
1574069852870653737,324,1574069852870262374,base_link,0,1,40.354841,-3.74407,684.666549236,0.980100018883,0.0,0.0,0.0,0.980100018883,0.0,0.0,0.0,6.8120994524,1
1574069853105071663,325,1574069853104872479,base_link,0,1,40.3548411,-3.7440699,684.506549247,0.980100018883,0.0,0.0,0.0,0.980100018883,0.0,0.0,0.0,6.8120994524,1
1574069853350262566,326,1574069853349781172,base_link,0,1,40.3548413,-3.7440699,684.36654944,0.980100018883,0.0,0.0,0.0,0.980100018883,0.0,0.0,0.0,6.8120994524,1
1574069853589411723,327,1574069853589247172,base_link,0,1,40.3548416,-3.7440697,684.196549557,0.980100018883,0.0,0.0,0.0,0.980100018883,0.0,0.0,0.0,6.8120994524,1
1574069853831380471,328,1574069853830973796,base_link,0,1,40.354842,-3.7440695,684.196549771,0.980100018883,0.0,0.0,0.0,0.980100018883,0.0,0.0,0.0,6.8120994524,1
1574069854074425426,329,1574069854074238196,base_link,0,1,40.3548426,-3.74407,683.656550781,0.980100018883,0.0,0.0,0.0,0.980100018883,0.0,0.0,0.0,6.8120994524,1
1574069854311553950,330,1574069854311223368,base_link,0,1,40.3548425,-3.7440703,683.446550943,0.980100018883,0.0,0.0,0.0,0.980100018883,0.0,0.0,0.0,6.8120994524,1
1574069854548846613,331,1574069854548624061,base_link,0,1,40.3548424,-3.7440707,683.306551191,0.980100018883,0.0,0.0,0.0,0.980100018883,0.0,0.0,0.0,6.8120994524,1
1574069854791991304,332,1574069854791640253,base_link,0,1,40.3548428,-3.7440709,683.256551749,0.980100018883,0.0,0.0,0.0,0.980100018883,0.0,0.0,0.0,6.8120994524,1
1574069855029063328,333,1574069855028885704,base_link,0,1,40.354843,-3.7440708,683.306551856,0.980100018883,0.0,0.0,0.0,0.980100018883,0.0,0.0,0.0,6.8120994524,1
1574069855271326082,334,1574069855270969545,base_link,0,1,40.3548434,-3.7440709,682.936552329,0.980100018883,0.0,0.0,0.0,0.980100018883,0.0,0.0,0.0,6.8120994524,1
1574069855509696872,335,1574069855509480722,base_link,0,1,40.3548433,-3.7440709,682.746552232,0.980100018883,0.0,0.0,0.0,0.980100018883,0.0,0.0,0.0,6.8120994524,1
1574069855752171960,336,1574069855751832511,base_link,0,1,40.354843,-3.7440707,682.55655177,0.980100018883,0.0,0.0,0.0,0.980100018883,0.0,0.0,0.0,6.8120994524,1
1574069855989733343,337,1574069855989519575,base_link,0,1,40.3548427,-3.7440702,682.50655105,0.980100018883,0.0,0.0,0.0,0.980100018883,0.0,0.0,0.0,6.8120994524,1
1574069856231233525,338,1574069856230881937,base_link,0,1,40.3548424,-3.7440697,682.40655033,0.980100018883,0.0,0.0,0.0,0.980100018883,0.0,0.0,0.0,6.8120994524,1
1574069856470757775,339,1574069856470538120,base_link,0,1,40.3548419,-3.7440696,681.866549761,0.980100018883,0.0,0.0,0.0,0.980100018883,0.0,0.0,0.0,6.8120994524,1
1574069856710879827,340,1574069856710513585,base_link,0,1,40.3548417,-3.7440697,681.716549654,0.980100018883,0.0,0.0,0.0,0.980100018883,0.0,0.0,0.0,6.8120994524,1
1574069856952811760,341,1574069856952663695,base_link,0,1,40.3548416,-3.7440694,681.676549299,0.980100018883,0.0,0.0,0.0,0.980100018883,0.0,0.0,0.0,6.8120994524,1
1574069857190149962,342,1574069857189733890,base_link,0,1,40.3548418,-3.744069,681.696549147,0.980100018883,0.0,0.0,0.0,0.980100018883,0.0,0.0,0.0,6.8120994524,1
1574069857426146072,343,1574069857425988368,base_link,0,1,40.3548423,-3.7440686,681.636549286,0.980100018883,0.0,0.0,0.0,0.980100018883,0.0,0.0,0.0,6.8120994524,1
1574069857672775406,344,1574069857672414840,base_link,0,1,40.3548429,-3.7440691,681.336550295,0.980100018883,0.0,0.0,0.0,0.980100018883,0.0,0.0,0.0,6.8120994524,1
1574069857910034263,345,1574069857909817821,base_link,0,1,40.3548433,-3.744069,681.216550596,0.980100018883,0.0,0.0,0.0,0.980100018883,0.0,0.0,0.0,6.8120994524,1
1574069858151629169,346,1574069858151196052,base_link,0,1,40.3548436,-3.7440686,681.116550541,0.980100018883,0.0,0.0,0.0,0.980100018883,0.0,0.0,0.0,6.8120994524,1
1574069858385390893,347,1574069858385160300,base_link,0,1,40.3548437,-3.7440683,681.026550379,0.980100018883,0.0,0.0,0.0,0.980100018883,0.0,0.0,0.0,6.8120994524,1
1574069858631180844,348,1574069858630766615,base_link,0,1,40.3548439,-3.7440682,680.816550486,0.980100018883,0.0,0.0,0.0,0.980100018883,0.0,0.0,0.0,6.8120994524,1
1574069858867480785,349,1574069858867239327,base_link,0,1,40.3548443,-3.7440677,680.596550441,0.960400037384,0.0,0.0,0.0,0.960400037384,0.0,0.0,0.0,4.28489972363,1
1574069859111302173,350,1574069859110859858,base_link,0,1,40.3548441,-3.7440673,680.406549904,0.960400037384,0.0,0.0,0.0,0.960400037384,0.0,0.0,0.0,4.28489972363,1
1574069859352658921,351,1574069859352437457,base_link,0,1,40.3548437,-3.7440672,680.186549431,0.960400037384,0.0,0.0,0.0,0.960400037384,0.0,0.0,0.0,4.28489972363,1
1574069859589605552,352,1574069859589180841,base_link,0,1,40.3548434,-3.744067,679.956548969,0.960400037384,0.0,0.0,0.0,0.960400037384,0.0,0.0,0.0,4.28489972363,1
1574069859829812072,353,1574069859829607488,base_link,0,1,40.3548433,-3.7440667,679.776548615,0.960400037384,0.0,0.0,0.0,0.960400037384,0.0,0.0,0.0,4.28489972363,1
1574069860069896910,354,1574069860069487812,base_link,0,1,40.3548427,-3.7440666,679.356547949,0.960400037384,0.0,0.0,0.0,0.960400037384,0.0,0.0,0.0,4.28489972363,1
1574069860310144412,355,1574069860310009837,base_link,0,1,40.3548425,-3.7440666,679.296547756,0.960400037384,0.0,0.0,0.0,0.960400037384,0.0,0.0,0.0,4.28489972363,1
1574069860551596602,356,1574069860551269435,base_link,0,1,40.3548424,-3.7440665,679.216547573,0.960400037384,0.0,0.0,0.0,0.960400037384,0.0,0.0,0.0,4.28489972363,1
1574069860789431718,357,1574069860789231571,base_link,0,1,40.3548425,-3.7440662,679.166547412,0.960400037384,0.0,0.0,0.0,0.960400037384,0.0,0.0,0.0,4.28489972363,1
1574069861029318890,358,1574069861028908302,base_link,0,1,40.3548425,-3.744066,679.096547239,0.960400037384,0.0,0.0,0.0,0.960400037384,0.0,0.0,0.0,4.28489972363,1
1574069861272717648,359,1574069861272562009,base_link,0,1,40.3548424,-3.7440658,679.056546971,0.960400037384,0.0,0.0,0.0,0.960400037384,0.0,0.0,0.0,4.28489972363,1
1574069861511567505,360,1574069861511238745,base_link,0,1,40.3548426,-3.7440656,678.886546991,0.960400037384,0.0,0.0,0.0,0.960400037384,0.0,0.0,0.0,4.28489972363,1
1574069861749000513,361,1574069861748738641,base_link,0,1,40.3548425,-3.7440655,678.756546809,0.980100018883,0.0,0.0,0.0,0.980100018883,0.0,0.0,0.0,6.8120994524,1
1574069861986963700,362,1574069861986586257,base_link,0,1,40.3548425,-3.7440654,678.626546723,0.960400037384,0.0,0.0,0.0,0.960400037384,0.0,0.0,0.0,4.28489972363,1
1574069862231337643,363,1574069862231160826,base_link,0,1,40.3548425,-3.7440654,678.516546723,0.960400037384,0.0,0.0,0.0,0.960400037384,0.0,0.0,0.0,4.28489972363,1
1574069862472341120,364,1574069862471963795,base_link,0,1,40.3548429,-3.7440659,678.436547539,0.960400037384,0.0,0.0,0.0,0.960400037384,0.0,0.0,0.0,4.28489972363,1
1574069862710910298,365,1574069862710697441,base_link,0,1,40.3548433,-3.7440658,678.686547839,0.960400037384,0.0,0.0,0.0,0.960400037384,0.0,0.0,0.0,4.28489972363,1
1574069862949521111,366,1574069862949092233,base_link,0,1,40.3548435,-3.7440658,678.616548032,0.960400037384,0.0,0.0,0.0,0.960400037384,0.0,0.0,0.0,4.28489972363,1
1574069863190526915,367,1574069863190346766,base_link,0,1,40.3548436,-3.744066,678.436548301,0.960400037384,0.0,0.0,0.0,0.960400037384,0.0,0.0,0.0,4.28489972363,1
1574069863429290532,368,1574069863429054028,base_link,0,1,40.3548436,-3.7440662,678.276548474,0.960400037384,0.0,0.0,0.0,0.960400037384,0.0,0.0,0.0,4.28489972363,1
1574069863669526464,369,1574069863669356155,base_link,0,1,40.3548435,-3.7440663,678.206548463,0.960400037384,0.0,0.0,0.0,0.960400037384,0.0,0.0,0.0,4.28489972363,1
1574069863906231824,370,1574069863906067599,base_link,0,1,40.3548436,-3.7440664,678.206548646,0.960400037384,0.0,0.0,0.0,0.960400037384,0.0,0.0,0.0,4.28489972363,1
1574069864150177741,371,1574069864149759226,base_link,0,1,40.3548436,-3.7440664,677.946548646,0.960400037384,0.0,0.0,0.0,0.960400037384,0.0,0.0,0.0,4.28489972363,1
1574069864389515414,372,1574069864389287642,base_link,0,1,40.3548433,-3.7440666,677.696548528,0.960400037384,0.0,0.0,0.0,0.960400037384,0.0,0.0,0.0,4.28489972363,1
1574069864630444160,373,1574069864630014485,base_link,0,1,40.3548432,-3.7440667,677.476548518,0.960400037384,0.0,0.0,0.0,0.960400037384,0.0,0.0,0.0,4.28489972363,1
1574069864864971240,374,1574069864864674045,base_link,0,1,40.354843,-3.7440663,676.99654798,0.960400037384,0.0,0.0,0.0,0.960400037384,0.0,0.0,0.0,4.28489972363,1
