%time,field.header.seq,field.header.stamp,field.header.frame_id,field.status.status,field.status.service,field.latitude,field.longitude,field.altitude,field.position_covariance0,field.position_covariance1,field.position_covariance2,field.position_covariance3,field.position_covariance4,field.position_covariance5,field.position_covariance6,field.position_covariance7,field.position_covariance8,field.position_covariance_type
1574069785712496425,0,1574069785712273355,base_link,0,1,40.3548519,-3.7441363,706.696616874,0.722500040531,0.0,0.0,0.0,0.722500040531,0.0,0.0,0.0,2.01639987812,1
1574069785952241052,1,1574069785951754837,base_link,0,1,40.3548514,-3.744136,706.676616133,0.722500040531,0.0,0.0,0.0,0.722500040531,0.0,0.0,0.0,2.01639987812,1
1574069786192711630,2,1574069786192365652,base_link,0,1,40.3548506,-3.7441358,706.666615188,0.722500040531,0.0,0.0,0.0,0.722500040531,0.0,0.0,0.0,2.01639987812,1
1574069786433245259,3,1574069786432829361,base_link,0,1,40.3548502,-3.7441357,706.656614715,0.722500040531,0.0,0.0,0.0,0.722500040531,0.0,0.0,0.0,2.01639987812,1
1574069786666896779,4,1574069786666516517,base_link,0,1,40.3548502,-3.7441354,706.646614457,0.722500040531,0.0,0.0,0.0,0.722500040531,0.0,0.0,0.0,2.01639987812,1
1574069786912695947,5,1574069786912236939,base_link,0,1,40.3548502,-3.7441351,706.626614198,0.722500040531,0.0,0.0,0.0,0.722500040531,0.0,0.0,0.0,2.01639987812,1
1574069787152257939,6,1574069787151945599,base_link,0,1,40.3548504,-3.7441349,706.616614219,0.960400037384,0.0,0.0,0.0,0.960400037384,0.0,0.0,0.0,4.32639968262,1
1574069787393152621,7,1574069787392729551,base_link,0,1,40.3548503,-3.7441347,706.59661395,0.960400037384,0.0,0.0,0.0,0.960400037384,0.0,0.0,0.0,4.32639968262,1
1574069787635822978,8,1574069787635570638,base_link,0,1,40.3548497,-3.7441344,706.596613113,0.960400037384,0.0,0.0,0.0,0.960400037384,0.0,0.0,0.0,4.32639968262,1
1574069787875253100,9,1574069787874802230,base_link,0,1,40.3548491,-3.7441343,706.586612447,0.960400037384,0.0,0.0,0.0,0.960400037384,0.0,0.0,0.0,4.32639968262,1
1574069788112767769,10,1574069788112376565,base_link,0,1,40.3548489,-3.7441341,706.586612082,0.960400037384,0.0,0.0,0.0,0.960400037384,0.0,0.0,0.0,4.32639968262,1
1574069788353874136,11,1574069788353414958,base_link,0,1,40.3548491,-3.7441338,706.576612016,0.960400037384,0.0,0.0,0.0,0.960400037384,0.0,0.0,0.0,4.32639968262,1
1574069788589835507,12,1574069788589586889,base_link,0,1,40.3548491,-3.7441336,706.586611844,0.960400037384,0.0,0.0,0.0,0.960400037384,0.0,0.0,0.0,4.32639968262,1
1574069788832635868,13,1574069788832214762,base_link,0,1,40.3548491,-3.7441334,706.576611672,0.960400037384,0.0,0.0,0.0,0.960400037384,0.0,0.0,0.0,4.32639968262,1
1574069789072317023,14,1574069789072036531,base_link,0,1,40.3548491,-3.7441332,706.566611499,0.960400037384,0.0,0.0,0.0,0.960400037384,0.0,0.0,0.0,4.32639968262,1
1574069789312998473,15,1574069789312591866,base_link,0,1,40.3548489,-3.7441329,706.566611048,0.960400037384,0.0,0.0,0.0,0.960400037384,0.0,0.0,0.0,4.32639968262,1
1574069789546487601,16,1574069789546171864,base_link,0,1,40.3548486,-3.7441325,706.566610413,0.960400037384,0.0,0.0,0.0,0.960400037384,0.0,0.0,0.0,4.32639968262,1
1574069789792328505,17,1574069789791880089,base_link,0,1,40.3548485,-3.7441322,706.566610058,0.722500040531,0.0,0.0,0.0,0.722500040531,0.0,0.0,0.0,2.01639987812,1
1574069790032430324,18,1574069790032167829,base_link,0,1,40.3548483,-3.744132,706.566609693,0.960400037384,0.0,0.0,0.0,0.960400037384,0.0,0.0,0.0,4.32639968262,1
1574069790272454105,19,1574069790272064333,base_link,0,1,40.3548478,-3.7441318,706.566609038,0.722500040531,0.0,0.0,0.0,0.722500040531,0.0,0.0,0.0,2.01639987812,1
1574069790512126238,20,1574069790511908836,base_link,0,1,40.3548477,-3.7441314,706.566608597,0.722500040531,0.0,0.0,0.0,0.722500040531,0.0,0.0,0.0,2.01639987812,1
1574069790751851277,21,1574069790751707260,base_link,0,1,40.3548477,-3.7441312,706.566608424,0.722500040531,0.0,0.0,0.0,0.722500040531,0.0,0.0,0.0,2.01639987812,1
1574069790992386324,22,1574069790992110298,base_link,0,1,40.3548477,-3.744131,706.556608252,0.960400037384,0.0,0.0,0.0,0.960400037384,0.0,0.0,0.0,4.32639968262,1
1574069791230945063,23,1574069791230517411,base_link,0,1,40.3548478,-3.7441309,706.556608262,0.960400037384,0.0,0.0,0.0,0.960400037384,0.0,0.0,0.0,4.32639968262,1
1574069791471414449,24,1574069791471115168,base_link,0,1,40.3548476,-3.7441306,706.556607811,0.960400037384,0.0,0.0,0.0,0.960400037384,0.0,0.0,0.0,4.32639968262,1
1574069791710148035,25,1574069791709672779,base_link,0,1,40.3548473,-3.7441303,706.566607263,0.960400037384,0.0,0.0,0.0,0.960400037384,0.0,0.0,0.0,4.32639968262,1
1574069791951716586,26,1574069791951364561,base_link,0,1,40.3548469,-3.74413,706.566606618,0.960400037384,0.0,0.0,0.0,0.960400037384,0.0,0.0,0.0,4.32639968262,1
1574069792192350105,27,1574069792191955628,base_link,0,1,40.3548464,-3.7441297,706.566605877,0.960400037384,0.0,0.0,0.0,0.960400037384,0.0,0.0,0.0,4.32639968262,1
1574069792429956976,28,1574069792429676806,base_link,0,1,40.3548459,-3.7441294,706.566605136,0.960400037384,0.0,0.0,0.0,0.960400037384,0.0,0.0,0.0,4.32639968262,1
1574069792670728486,29,1574069792670266654,base_link,0,1,40.3548454,-3.7441292,706.576604481,0.960400037384,0.0,0.0,0.0,0.960400037384,0.0,0.0,0.0,4.32639968262,1
1574069792907941037,30,1574069792907640418,base_link,0,1,40.3548449,-3.7441289,706.586603739,0.960400037384,0.0,0.0,0.0,0.960400037384,0.0,0.0,0.0,6.8120994524,1
1574069793151726982,31,1574069793151320966,base_link,0,1,40.3548444,-3.7441287,706.586603084,0.960400037384,0.0,0.0,0.0,0.960400037384,0.0,0.0,0.0,4.32639968262,1
1574069793390438526,32,1574069793390181189,base_link,0,1,40.3548442,-3.7441284,706.596602633,0.960400037384,0.0,0.0,0.0,0.960400037384,0.0,0.0,0.0,4.32639968262,1
1574069793630407190,33,1574069793630179269,base_link,0,1,40.3548438,-3.744128,706.606601902,0.960400037384,0.0,0.0,0.0,0.960400037384,0.0,0.0,0.0,4.32639968262,1
1574069793911163306,34,1574069793910897648,base_link,0,1,40.3548428,-3.7441277,706.626600678,0.960400037384,0.0,0.0,0.0,0.960400037384,0.0,0.0,0.0,4.32639968262,1
1574069794212551229,35,1574069794212079920,base_link,0,1,40.3548418,-3.7441273,706.646599368,0.960400037384,0.0,0.0,0.0,0.960400037384,0.0,0.0,0.0,4.32639968262,1
1574069794523632326,36,1574069794523366130,base_link,0,1,40.3548412,-3.7441269,706.666598444,0.960400037384,0.0,0.0,0.0,0.960400037384,0.0,0.0,0.0,4.32639968262,1
1574069794793118807,37,1574069794792667954,base_link,0,1,40.3548409,-3.7441265,706.67659781,0.960400037384,0.0,0.0,0.0,0.960400037384,0.0,0.0,0.0,4.32639968262,1
1574069795072525574,38,1574069795072272256,base_link,0,1,40.3548407,-3.744126,706.686597186,0.960400037384,0.0,0.0,0.0,0.960400037384,0.0,0.0,0.0,4.32639968262,1
1574069795353114890,39,1574069795352943931,base_link,0,1,40.3548406,-3.7441254,706.696596573,0.960400037384,0.0,0.0,0.0,0.960400037384,0.0,0.0,0.0,4.32639968262,1
1574069795674275406,40,1574069795673820453,base_link,0,1,40.3548402,-3.7441249,706.716595756,0.960400037384,0.0,0.0,0.0,0.960400037384,0.0,0.0,0.0,4.32639968262,1
1574069795916525754,41,1574069795916183219,base_link,0,1,40.3548395,-3.7441244,706.726594649,0.960400037384,0.0,0.0,0.0,0.960400037384,0.0,0.0,0.0,4.32639968262,1
1574069796200045979,42,1574069796199629048,base_link,0,1,40.3548389,-3.7441239,706.736593639,0.960400037384,0.0,0.0,0.0,0.960400037384,0.0,0.0,0.0,4.32639968262,1
1574069796467149806,43,1574069796466865985,base_link,0,1,40.3548379,-3.7441233,706.746592157,0.960400037384,0.0,0.0,0.0,0.960400037384,0.0,0.0,0.0,4.32639968262,1
1574069796753897128,44,1574069796753584102,base_link,0,1,40.3548366,-3.7441226,706.766590299,0.960400037384,0.0,0.0,0.0,0.960400037384,0.0,0.0,0.0,4.32639968262,1
1574069797034607832,45,1574069797034202996,base_link,0,1,40.3548354,-3.7441221,706.77658871,0.960400037384,0.0,0.0,0.0,0.960400037384,0.0,0.0,0.0,4.32639968262,1
1574069797339351840,46,1574069797339019615,base_link,0,1,40.354834,-3.7441217,706.786587014,0.960400037384,0.0,0.0,0.0,0.960400037384,0.0,0.0,0.0,4.32639968262,1
1574069797614372136,47,1574069797613904827,base_link,0,1,40.354833,-3.7441218,706.806586134,0.960400037384,0.0,0.0,0.0,0.960400037384,0.0,0.0,0.0,4.32639968262,1
1574069797883802823,48,1574069797883593833,base_link,0,1,40.3548321,-3.7441215,706.816585007,0.960400037384,0.0,0.0,0.0,0.960400037384,0.0,0.0,0.0,4.32639968262,1
1574069798172879220,49,1574069798172407038,base_link,0,1,40.3548314,-3.7441211,706.816583987,0.960400037384,0.0,0.0,0.0,0.960400037384,0.0,0.0,0.0,4.32639968262,1
1574069798434053113,50,1574069798433773910,base_link,0,1,40.3548307,-3.7441205,706.816582794,0.960400037384,0.0,0.0,0.0,0.960400037384,0.0,0.0,0.0,4.32639968262,1
1574069798696957021,51,1574069798696569421,base_link,0,1,40.3548305,-3.7441196,706.816581826,0.960400037384,0.0,0.0,0.0,0.960400037384,0.0,0.0,0.0,4.32639968262,1
1574069798995378987,52,1574069798995037164,base_link,0,1,40.35483,-3.7441186,706.816580482,0.722500040531,0.0,0.0,0.0,0.722500040531,0.0,0.0,0.0,2.01639987812,1
1574069799271610173,53,1574069799271450003,base_link,0,1,40.3548297,-3.7441176,706.816579331,0.722500040531,0.0,0.0,0.0,0.722500040531,0.0,0.0,0.0,2.01639987812,1
1574069799557415582,54,1574069799556982200,base_link,0,1,40.3548295,-3.7441167,706.806578362,0.722500040531,0.0,0.0,0.0,0.722500040531,0.0,0.0,0.0,2.01639987812,1
1574069799833399412,55,1574069799833279191,base_link,0,1,40.3548295,-3.7441158,706.796577587,0.722500040531,0.0,0.0,0.0,0.722500040531,0.0,0.0,0.0,2.01639987812,1
1574069800126701907,56,1574069800126246691,base_link,0,1,40.3548295,-3.7441151,706.786576984,0.722500040531,0.0,0.0,0.0,0.722500040531,0.0,0.0,0.0,2.01639987812,1
1574069800430653805,57,1574069800430388669,base_link,0,1,40.3548294,-3.7441139,706.766575854,0.722500040531,0.0,0.0,0.0,0.722500040531,0.0,0.0,0.0,2.01639987812,1
1574069800696104533,58,1574069800695583680,base_link,0,1,40.3548293,-3.7441126,706.766574637,0.722500040531,0.0,0.0,0.0,0.722500040531,0.0,0.0,0.0,2.01639987812,1
1574069800972587617,59,1574069800972102529,base_link,0,1,40.3548291,-3.7441114,706.76657341,0.722500040531,0.0,0.0,0.0,0.722500040531,0.0,0.0,0.0,2.01639987812,1
1574069801279322447,60,1574069801279173997,base_link,0,1,40.354829,-3.7441106,706.756572625,0.722500040531,0.0,0.0,0.0,0.722500040531,0.0,0.0,0.0,2.01639987812,1
1574069801548682996,61,1574069801548252742,base_link,0,1,40.3548287,-3.74411,706.766571818,0.722500040531,0.0,0.0,0.0,0.722500040531,0.0,0.0,0.0,2.01639987812,1
1574069801832259250,62,1574069801831952131,base_link,0,1,40.3548285,-3.7441095,706.776571195,0.722500040531,0.0,0.0,0.0,0.722500040531,0.0,0.0,0.0,2.01639987812,1
1574069802133154908,63,1574069802132691955,base_link,0,1,40.3548283,-3.7441087,706.776570312,0.774399991608,0.0,0.0,0.0,0.774399991608,0.0,0.0,0.0,2.01639987812,1
1574069802411557760,64,1574069802411333107,base_link,0,1,40.3548283,-3.7441082,706.786569882,0.722500040531,0.0,0.0,0.0,0.722500040531,0.0,0.0,0.0,2.01639987812,1
1574069802687317398,65,1574069802686854050,base_link,0,1,40.3548285,-3.7441076,706.796569558,0.722500040531,0.0,0.0,0.0,0.722500040531,0.0,0.0,0.0,2.01639987812,1
1574069802971988751,66,1574069802971616155,base_link,0,1,40.3548287,-3.7441073,706.796569492,0.722500040531,0.0,0.0,0.0,0.722500040531,0.0,0.0,0.0,2.01639987812,1
1574069803227623435,67,1574069803227184983,base_link,0,1,40.354829,-3.7441072,706.786569696,0.722500040531,0.0,0.0,0.0,0.722500040531,0.0,0.0,0.0,2.01639987812,1
1574069803508946435,68,1574069803508512649,base_link,0,1,40.3548292,-3.7441073,706.786569975,0.722500040531,0.0,0.0,0.0,0.722500040531,0.0,0.0,0.0,2.01639987812,1
1574069803832203989,69,1574069803832006513,base_link,0,1,40.3548294,-3.7441071,706.776569996,0.722500040531,0.0,0.0,0.0,0.722500040531,0.0,0.0,0.0,2.01639987812,1
1574069804106927852,70,1574069804106531217,base_link,0,1,40.3548297,-3.7441063,706.756569596,0.722500040531,0.0,0.0,0.0,0.722500040531,0.0,0.0,0.0,2.01639987812,1
1574069804386181211,71,1574069804385873452,base_link,0,1,40.3548299,-3.744106,706.746569531,0.722500040531,0.0,0.0,0.0,0.722500040531,0.0,0.0,0.0,2.01639987812,1
1574069804648332141,72,1574069804647845629,base_link,0,1,40.3548299,-3.7441061,706.756569617,0.722500040531,0.0,0.0,0.0,0.722500040531,0.0,0.0,0.0,2.01639987812,1
1574069804932073448,73,1574069804931889273,base_link,0,1,40.3548298,-3.7441058,706.756569262,0.722500040531,0.0,0.0,0.0,0.722500040531,0.0,0.0,0.0,2.01639987812,1
1574069805190818628,74,1574069805190367542,base_link,0,1,40.3548299,-3.7441055,706.7565691,0.722500040531,0.0,0.0,0.0,0.722500040531,0.0,0.0,0.0,2.01639987812,1
1574069805481784316,75,1574069805481420959,base_link,0,1,40.3548301,-3.744105,706.756568862,0.722500040531,0.0,0.0,0.0,0.722500040531,0.0,0.0,0.0,2.01639987812,1
1574069805745761630,76,1574069805745529467,base_link,0,1,40.3548305,-3.7441041,706.736568473,0.722500040531,0.0,0.0,0.0,0.722500040531,0.0,0.0,0.0,2.01639987812,1
1574069806032441708,77,1574069806032039605,base_link,0,1,40.3548312,-3.7441031,706.746568287,0.722500040531,0.0,0.0,0.0,0.722500040531,0.0,0.0,0.0,2.01639987812,1
1574069806347442491,78,1574069806347252311,base_link,0,1,40.3548319,-3.7441018,706.766567843,0.722500040531,0.0,0.0,0.0,0.722500040531,0.0,0.0,0.0,2.01639987812,1
1574069806616256541,79,1574069806615868176,base_link,0,1,40.3548323,-3.7441008,706.816567368,0.722500040531,0.0,0.0,0.0,0.722500040531,0.0,0.0,0.0,2.01639987812,1
1574069806905101443,80,1574069806904942278,base_link,0,1,40.3548322,-3.7441005,706.876567013,0.722500040531,0.0,0.0,0.0,0.722500040531,0.0,0.0,0.0,2.01639987812,1
1574069807206514736,81,1574069807206177879,base_link,0,1,40.3548312,-3.7441014,706.926566823,0.722500040531,0.0,0.0,0.0,0.722500040531,0.0,0.0,0.0,2.01639987812,1
1574069807490213854,82,1574069807489975902,base_link,0,1,40.3548308,-3.744102,706.986566954,0.722500040531,0.0,0.0,0.0,0.722500040531,0.0,0.0,0.0,2.01639987812,1
1574069807745733555,83,1574069807745586196,base_link,0,1,40.3548306,-3.7441025,707.056567191,0.792099974537,0.0,0.0,0.0,0.792099974537,0.0,0.0,0.0,2.01639987812,1
1574069808026457810,84,1574069808026025009,base_link,0,1,40.3548305,-3.7441028,707.106567353,0.792099974537,0.0,0.0,0.0,0.792099974537,0.0,0.0,0.0,2.01639987812,1
1574069808312405496,85,1574069808312139810,base_link,0,1,40.3548306,-3.7441025,707.136567191,0.722500040531,0.0,0.0,0.0,0.722500040531,0.0,0.0,0.0,2.01639987812,1
1574069808632555873,86,1574069808632191494,base_link,0,1,40.3548308,-3.7441014,707.136566437,0.722500040531,0.0,0.0,0.0,0.722500040531,0.0,0.0,0.0,2.01639987812,1
1574069808872109980,87,1574069808871890324,base_link,0,1,40.354831,-3.7441005,707.136565855,0.722500040531,0.0,0.0,0.0,0.722500040531,0.0,0.0,0.0,2.01639987812,1
1574069809151387930,88,1574069809150923494,base_link,0,1,40.3548311,-3.7440994,707.146565004,0.722500040531,0.0,0.0,0.0,0.722500040531,0.0,0.0,0.0,2.01639987812,1
1574069809431720103,89,1574069809431444068,base_link,0,1,40.3548307,-3.7440983,707.16656367,0.722500040531,0.0,0.0,0.0,0.722500040531,0.0,0.0,0.0,2.01639987812,1
1574069809712141482,90,1574069809711718626,base_link,0,1,40.3548298,-3.7440982,707.186562715,0.722500040531,0.0,0.0,0.0,0.722500040531,0.0,0.0,0.0,2.01639987812,1
1574069809972083361,91,1574069809971806444,base_link,0,1,40.3548296,-3.7440981,707.196562436,0.722500040531,0.0,0.0,0.0,0.722500040531,0.0,0.0,0.0,2.01639987812,1
1574069810275460725,92,1574069810275014752,base_link,0,1,40.3548304,-3.744097,707.196562261,0.722500040531,0.0,0.0,0.0,0.722500040531,0.0,0.0,0.0,2.01639987812,1
1574069810585482001,93,1574069810584994757,base_link,0,1,40.3548309,-3.7440954,707.206561365,0.722500040531,0.0,0.0,0.0,0.722500040531,0.0,0.0,0.0,2.01639987812,1
1574069810844761632,94,1574069810844444559,base_link,0,1,40.3548311,-3.7440942,707.216560524,0.722500040531,0.0,0.0,0.0,0.722500040531,0.0,0.0,0.0,2.01639987812,1
1574069811159545256,95,1574069811159034458,base_link,0,1,40.3548314,-3.7440928,707.226559608,0.722500040531,0.0,0.0,0.0,0.722500040531,0.0,0.0,0.0,2.01639987812,1
1574069811432962594,96,1574069811432780007,base_link,0,1,40.3548318,-3.7440912,707.256558616,0.722500040531,0.0,0.0,0.0,0.722500040531,0.0,0.0,0.0,2.01639987812,1
1574069811670466730,97,1574069811670008001,base_link,0,1,40.354832,-3.7440902,707.296557948,0.722500040531,0.0,0.0,0.0,0.722500040531,0.0,0.0,0.0,2.01639987812,1
1574069811965667336,98,1574069811965365992,base_link,0,1,40.354833,-3.7440899,707.366558655,0.722500040531,0.0,0.0,0.0,0.722500040531,0.0,0.0,0.0,2.01639987812,1
1574069812246911550,99,1574069812246427316,base_link,0,1,40.3548339,-3.7440899,707.436559523,0.722500040531,0.0,0.0,0.0,0.722500040531,0.0,0.0,0.0,2.01639987812,1
1574069812535928620,100,1574069812535666572,base_link,0,1,40.3548345,-3.74409,707.516560189,0.722500040531,0.0,0.0,0.0,0.722500040531,0.0,0.0,0.0,2.01639987812,1
1574069812807950402,101,1574069812807612219,base_link,0,1,40.3548343,-3.7440906,707.606560512,0.722500040531,0.0,0.0,0.0,0.722500040531,0.0,0.0,0.0,2.01639987812,1
1574069813092101573,102,1574069813091715225,base_link,0,1,40.3548342,-3.7440909,707.696560674,0.722500040531,0.0,0.0,0.0,0.722500040531,0.0,0.0,0.0,2.01639987812,1
1574069813408295496,103,1574069813407950368,base_link,0,1,40.3548344,-3.7440909,707.796560867,0.722500040531,0.0,0.0,0.0,0.722500040531,0.0,0.0,0.0,2.01639987812,1
1574069813739410792,104,1574069813738986609,base_link,0,1,40.3548347,-3.7440895,707.886559951,0.722500040531,0.0,0.0,0.0,0.722500040531,0.0,0.0,0.0,2.01639987812,1
1574069813990419327,105,1574069813990233014,base_link,0,1,40.354835,-3.744088,707.936558948,0.722500040531,0.0,0.0,0.0,0.722500040531,0.0,0.0,0.0,2.01639987812,1
1574069814252715157,106,1574069814252295488,base_link,0,1,40.3548353,-3.7440865,707.986557946,0.722500040531,0.0,0.0,0.0,0.722500040531,0.0,0.0,0.0,2.01639987812,1
1574069814531427646,107,1574069814531168904,base_link,0,1,40.3548355,-3.7440853,708.056557105,0.722500040531,0.0,0.0,0.0,0.722500040531,0.0,0.0,0.0,2.01639987812,1
1574069814843927541,108,1574069814843627153,base_link,0,1,40.3548355,-3.7440851,708.116556933,0.792099974537,0.0,0.0,0.0,0.792099974537,0.0,0.0,0.0,2.49640013561,1
1574069815092707873,109,1574069815092423391,base_link,0,1,40.3548356,-3.744085,708.156556944,0.792099974537,0.0,0.0,0.0,0.792099974537,0.0,0.0,0.0,2.49640013561,1
1574069815353063403,110,1574069815352625274,base_link,0,1,40.3548356,-3.7440849,708.206556857,0.722500040531,0.0,0.0,0.0,0.722500040531,0.0,0.0,0.0,2.01639987812,1
1574069815609880322,111,1574069815609622104,base_link,0,1,40.3548356,-3.7440848,708.266556771,0.792099974537,0.0,0.0,0.0,0.792099974537,0.0,0.0,0.0,2.49640013561,1
1574069815871925925,112,1574069815871516259,base_link,0,1,40.3548359,-3.744085,708.306557233,0.792099974537,0.0,0.0,0.0,0.792099974537,0.0,0.0,0.0,2.49640013561,1
1574069816130289666,113,1574069816130096996,base_link,0,1,40.3548361,-3.744085,708.346557426,0.722500040531,0.0,0.0,0.0,0.722500040531,0.0,0.0,0.0,2.01639987812,1
1574069816388315545,114,1574069816387862041,base_link,0,1,40.3548359,-3.7440848,708.356557061,0.722500040531,0.0,0.0,0.0,0.722500040531,0.0,0.0,0.0,2.01639987812,1
1574069816684308539,115,1574069816684191081,base_link,0,1,40.3548357,-3.7440845,708.356556609,0.792099974537,0.0,0.0,0.0,0.792099974537,0.0,0.0,0.0,2.49640013561,1
1574069816933478196,116,1574069816933011259,base_link,0,1,40.3548355,-3.7440841,708.376556072,0.722500040531,0.0,0.0,0.0,0.722500040531,0.0,0.0,0.0,2.01639987812,1
1574069817192000061,117,1574069817191774262,base_link,0,1,40.3548353,-3.7440837,708.406555534,0.722500040531,0.0,0.0,0.0,0.722500040531,0.0,0.0,0.0,2.01639987812,1
1574069817475834156,118,1574069817475416664,base_link,0,1,40.3548351,-3.7440832,708.44655491,0.722500040531,0.0,0.0,0.0,0.722500040531,0.0,0.0,0.0,2.01639987812,1
1574069817732808365,119,1574069817732358050,base_link,0,1,40.3548347,-3.7440829,708.466554266,0.722500040531,0.0,0.0,0.0,0.722500040531,0.0,0.0,0.0,2.01639987812,1
1574069817985099875,120,1574069817984913956,base_link,0,1,40.3548339,-3.7440826,708.466553235,0.722500040531,0.0,0.0,0.0,0.722500040531,0.0,0.0,0.0,2.01639987812,1
1574069818255238088,121,1574069818254812238,base_link,0,1,40.3548331,-3.7440822,708.476552119,0.722500040531,0.0,0.0,0.0,0.722500040531,0.0,0.0,0.0,2.01639987812,1
1574069818530593091,122,1574069818530304703,base_link,0,1,40.3548326,-3.744082,708.476551464,0.722500040531,0.0,0.0,0.0,0.722500040531,0.0,0.0,0.0,2.01639987812,1
1574069818804374230,123,1574069818803922803,base_link,0,1,40.3548324,-3.744082,708.476551271,0.722500040531,0.0,0.0,0.0,0.722500040531,0.0,0.0,0.0,2.01639987812,1
1574069819047666589,124,1574069819047443220,base_link,0,1,40.3548323,-3.7440823,708.476551433,0.722500040531,0.0,0.0,0.0,0.722500040531,0.0,0.0,0.0,2.01639987812,1
1574069819312839205,125,1574069819312416602,base_link,0,1,40.3548321,-3.7440828,708.47655167,0.722500040531,0.0,0.0,0.0,0.722500040531,0.0,0.0,0.0,2.01639987812,1
1574069819605305830,126,1574069819605016689,base_link,0,1,40.3548319,-3.7440828,708.476551477,0.722500040531,0.0,0.0,0.0,0.722500040531,0.0,0.0,0.0,2.01639987812,1
1574069819900981074,127,1574069819900639109,base_link,0,1,40.3548314,-3.7440824,708.47655065,0.960400037384,0.0,0.0,0.0,0.960400037384,0.0,0.0,0.0,4.28489972363,1
1574069820152273053,128,1574069820151957702,base_link,0,1,40.354831,-3.7440822,708.476550092,0.960400037384,0.0,0.0,0.0,0.960400037384,0.0,0.0,0.0,4.28489972363,1
1574069820433656901,129,1574069820433215538,base_link,0,1,40.354831,-3.7440823,708.476550178,0.722500040531,0.0,0.0,0.0,0.722500040531,0.0,0.0,0.0,2.01639987812,1
1574069820685139406,130,1574069820684885009,base_link,0,1,40.354831,-3.7440825,708.48655035,0.722500040531,0.0,0.0,0.0,0.722500040531,0.0,0.0,0.0,2.01639987812,1
1574069820932531662,131,1574069820932123672,base_link,0,1,40.354831,-3.7440831,708.476550867,0.960400037384,0.0,0.0,0.0,0.960400037384,0.0,0.0,0.0,4.28489972363,1
1574069821197241050,132,1574069821196965850,base_link,0,1,40.3548305,-3.7440831,708.456550384,0.960400037384,0.0,0.0,0.0,0.960400037384,0.0,0.0,0.0,4.28489972363,1
1574069821460300204,133,1574069821459877801,base_link,0,1,40.3548295,-3.7440831,708.446549419,0.960400037384,0.0,0.0,0.0,0.960400037384,0.0,0.0,0.0,4.28489972363,1
1574069821712672916,134,1574069821712498939,base_link,0,1,40.3548285,-3.7440832,708.42654854,0.960400037384,0.0,0.0,0.0,0.960400037384,0.0,0.0,0.0,4.28489972363,1
1574069821976742725,135,1574069821976222570,base_link,0,1,40.3548278,-3.7440832,708.406547864,0.960400037384,0.0,0.0,0.0,0.960400037384,0.0,0.0,0.0,4.28489972363,1
1574069822284700626,136,1574069822284426316,base_link,0,1,40.3548275,-3.7440833,708.396547661,0.960400037384,0.0,0.0,0.0,0.960400037384,0.0,0.0,0.0,4.28489972363,1
1574069822560032023,137,1574069822559772692,base_link,0,1,40.354827,-3.7440832,708.376547092,0.960400037384,0.0,0.0,0.0,0.960400037384,0.0,0.0,0.0,4.28489972363,1
1574069822791850121,138,1574069822791679948,base_link,0,1,40.3548267,-3.7440834,708.366546975,0.960400037384,0.0,0.0,0.0,0.960400037384,0.0,0.0,0.0,4.28489972363,1
1574069823048067736,139,1574069823047652493,base_link,0,1,40.3548267,-3.7440841,708.346547578,0.960400037384,0.0,0.0,0.0,0.960400037384,0.0,0.0,0.0,4.28489972363,1
1574069823319959627,140,1574069823319752573,base_link,0,1,40.3548274,-3.7440848,708.316548856,0.960400037384,0.0,0.0,0.0,0.960400037384,0.0,0.0,0.0,4.28489972363,1
1574069823596996568,141,1574069823596772972,base_link,0,1,40.3548281,-3.7440852,708.306549877,0.960400037384,0.0,0.0,0.0,0.960400037384,0.0,0.0,0.0,4.28489972363,1
1574069823849212142,142,1574069823848935568,base_link,0,1,40.3548286,-3.7440854,708.276550531,0.960400037384,0.0,0.0,0.0,0.960400037384,0.0,0.0,0.0,4.28489972363,1
1574069824121640826,143,1574069824120822725,base_link,0,1,40.3548291,-3.7440858,708.256551359,0.960400037384,0.0,0.0,0.0,0.960400037384,0.0,0.0,0.0,4.28489972363,1
1574069824374095655,144,1574069824373808854,base_link,0,1,40.3548297,-3.7440866,708.236552627,0.960400037384,0.0,0.0,0.0,0.960400037384,0.0,0.0,0.0,4.28489972363,1
1574069824633029234,145,1574069824632698350,base_link,0,1,40.3548302,-3.7440868,708.216553282,0.960400037384,0.0,0.0,0.0,0.960400037384,0.0,0.0,0.0,4.28489972363,1
1574069824927607178,146,1574069824927092075,base_link,0,1,40.3548301,-3.744087,708.206553357,0.960400037384,0.0,0.0,0.0,0.960400037384,0.0,0.0,0.0,4.28489972363,1
1574069825171499035,147,1574069825171310646,base_link,0,1,40.3548297,-3.7440875,708.176553402,0.960400037384,0.0,0.0,0.0,0.960400037384,0.0,0.0,0.0,4.28489972363,1
1574069825463209302,148,1574069825462783272,base_link,0,1,40.3548296,-3.7440877,708.146553478,0.960400037384,0.0,0.0,0.0,0.960400037384,0.0,0.0,0.0,4.28489972363,1
1574069825711615065,149,1574069825711429770,base_link,0,1,40.3548296,-3.7440872,708.116553047,0.960400037384,0.0,0.0,0.0,0.960400037384,0.0,0.0,0.0,6.8120994524,1
1574069825975625768,150,1574069825975171434,base_link,0,1,40.3548295,-3.7440863,708.076552175,0.960400037384,0.0,0.0,0.0,0.960400037384,0.0,0.0,0.0,6.8120994524,1
1574069826232227923,151,1574069826231883153,base_link,0,1,40.3548296,-3.7440855,708.036551583,0.960400037384,0.0,0.0,0.0,0.960400037384,0.0,0.0,0.0,6.8120994524,1
1574069826491056611,152,1574069826490569270,base_link,0,1,40.3548297,-3.7440846,708.006550904,0.960400037384,0.0,0.0,0.0,0.960400037384,0.0,0.0,0.0,6.8120994524,1
1574069826753486026,153,1574069826753262890,base_link,0,1,40.3548294,-3.7440839,707.966550012,0.960400037384,0.0,0.0,0.0,0.960400037384,0.0,0.0,0.0,6.8120994524,1
1574069827036174755,154,1574069827035705741,base_link,0,1,40.3548292,-3.7440832,707.926549216,0.960400037384,0.0,0.0,0.0,0.960400037384,0.0,0.0,0.0,6.8120994524,1
1574069827332511825,155,1574069827332293527,base_link,0,1,40.3548293,-3.7440818,707.886548106,0.960400037384,0.0,0.0,0.0,0.960400037384,0.0,0.0,0.0,6.8120994524,1
1574069827556978928,156,1574069827556589494,base_link,0,1,40.3548292,-3.744081,707.846547321,0.960400037384,0.0,0.0,0.0,0.960400037384,0.0,0.0,0.0,6.8120994524,1
1574069827811882250,157,1574069827811612090,base_link,0,1,40.3548289,-3.7440805,707.8165466,0.960400037384,0.0,0.0,0.0,0.960400037384,0.0,0.0,0.0,6.8120994524,1
1574069828076148816,158,1574069828075747576,base_link,0,1,40.3548286,-3.7440799,707.776545794,0.960400037384,0.0,0.0,0.0,0.960400037384,0.0,0.0,0.0,6.8120994524,1
1574069828368339716,159,1574069828368046082,base_link,0,1,40.3548284,-3.7440792,707.716544998,0.960400037384,0.0,0.0,0.0,0.960400037384,0.0,0.0,0.0,6.8120994524,1
1574069828630491076,160,1574069828629879781,base_link,0,1,40.3548285,-3.7440789,707.686544836,0.960400037384,0.0,0.0,0.0,0.960400037384,0.0,0.0,0.0,6.8120994524,1
1574069828871562682,161,1574069828871249999,base_link,0,1,40.3548282,-3.7440786,707.646544288,0.960400037384,0.0,0.0,0.0,0.960400037384,0.0,0.0,0.0,6.8120994524,1
1574069829132561302,162,1574069829132171531,base_link,0,1,40.3548278,-3.7440786,707.596543902,0.960400037384,0.0,0.0,0.0,0.960400037384,0.0,0.0,0.0,6.8120994524,1
1574069829394334448,163,1574069829393897646,base_link,0,1,40.3548279,-3.7440782,707.566543654,0.960400037384,0.0,0.0,0.0,0.960400037384,0.0,0.0,0.0,6.8120994524,1
1574069829647434275,164,1574069829647076078,base_link,0,1,40.3548281,-3.7440768,707.546542641,0.960400037384,0.0,0.0,0.0,0.960400037384,0.0,0.0,0.0,6.8120994524,1
1574069829907266822,165,1574069829906953929,base_link,0,1,40.3548283,-3.7440753,707.516541542,0.960400037384,0.0,0.0,0.0,0.960400037384,0.0,0.0,0.0,6.8120994524,1
1574069830196432828,166,1574069830196111291,base_link,0,1,40.3548287,-3.744074,707.496540809,0.960400037384,0.0,0.0,0.0,0.960400037384,0.0,0.0,0.0,6.8120994524,1
1574069830464823644,167,1574069830464466852,base_link,0,1,40.3548291,-3.7440734,707.496540678,0.960400037384,0.0,0.0,0.0,0.960400037384,0.0,0.0,0.0,6.8120994524,1
1574069830730175818,168,1574069830729858578,base_link,0,1,40.3548298,-3.7440732,707.496541181,0.960400037384,0.0,0.0,0.0,0.960400037384,0.0,0.0,0.0,6.8120994524,1
1574069830990212812,169,1574069830989736788,base_link,0,1,40.3548303,-3.7440734,707.506541836,0.960400037384,0.0,0.0,0.0,0.960400037384,0.0,0.0,0.0,6.8120994524,1
1574069831288784132,170,1574069831288575787,base_link,0,1,40.3548306,-3.7440738,707.52654247,0.960400037384,0.0,0.0,0.0,0.960400037384,0.0,0.0,0.0,6.8120994524,1
1574069831534276912,171,1574069831533800232,base_link,0,1,40.3548308,-3.7440741,707.536542922,0.960400037384,0.0,0.0,0.0,0.960400037384,0.0,0.0,0.0,6.8120994524,1
1574069831819345546,172,1574069831819110528,base_link,0,1,40.3548309,-3.7440745,707.546543363,0.960400037384,0.0,0.0,0.0,0.960400037384,0.0,0.0,0.0,6.8120994524,1
1574069832091038423,173,1574069832090608695,base_link,0,1,40.3548306,-3.7440746,707.556543159,0.960400037384,0.0,0.0,0.0,0.960400037384,0.0,0.0,0.0,4.28489972363,1
1574069832369407088,174,1574069832369136750,base_link,0,1,40.3548301,-3.7440745,707.556542591,0.960400037384,0.0,0.0,0.0,0.960400037384,0.0,0.0,0.0,4.28489972363,1
1574069832655696334,175,1574069832655268933,base_link,0,1,40.3548298,-3.7440744,707.566542215,0.960400037384,0.0,0.0,0.0,0.960400037384,0.0,0.0,0.0,4.28489972363,1
1574069832889638006,176,1574069832889467510,base_link,0,1,40.3548296,-3.7440739,707.566541591,0.960400037384,0.0,0.0,0.0,0.960400037384,0.0,0.0,0.0,4.28489972363,1
1574069833144367230,177,1574069833143957241,base_link,0,1,40.3548294,-3.7440736,707.56654114,0.960400037384,0.0,0.0,0.0,0.960400037384,0.0,0.0,0.0,4.28489972363,1
1574069833413835777,178,1574069833413575315,base_link,0,1,40.3548294,-3.7440737,707.576541226,0.960400037384,0.0,0.0,0.0,0.960400037384,0.0,0.0,0.0,4.28489972363,1
1574069833693755297,179,1574069833693308945,base_link,0,1,40.3548298,-3.7440739,707.586541784,0.960400037384,0.0,0.0,0.0,0.960400037384,0.0,0.0,0.0,4.28489972363,1
1574069833951939791,180,1574069833951649546,base_link,0,1,40.3548302,-3.744074,707.576542257,0.960400037384,0.0,0.0,0.0,0.960400037384,0.0,0.0,0.0,4.28489972363,1
1574069834243229691,181,1574069834242976477,base_link,0,1,40.3548306,-3.7440741,707.576542729,0.960400037384,0.0,0.0,0.0,0.960400037384,0.0,0.0,0.0,4.28489972363,1
1574069834516353087,182,1574069834515951319,base_link,0,1,40.3548308,-3.7440741,707.576542922,0.960400037384,0.0,0.0,0.0,0.960400037384,0.0,0.0,0.0,4.28489972363,1
1574069834806718290,183,1574069834806513466,base_link,0,1,40.354831,-3.7440741,707.576543115,0.960400037384,0.0,0.0,0.0,0.960400037384,0.0,0.0,0.0,4.28489972363,1
1574069835019386414,184,1574069835019066452,base_link,0,1,40.3548311,-3.7440742,707.576543298,0.960400037384,0.0,0.0,0.0,0.960400037384,0.0,0.0,0.0,4.28489972363,1
1574069835275815648,185,1574069835275356363,base_link,0,1,40.3548313,-3.7440743,707.576543577,0.960400037384,0.0,0.0,0.0,0.960400037384,0.0,0.0,0.0,4.28489972363,1
1574069835536614954,186,1574069835536297546,base_link,0,1,40.3548314,-3.7440744,707.576543759,0.960400037384,0.0,0.0,0.0,0.960400037384,0.0,0.0,0.0,4.28489972363,1
1574069835794498941,187,1574069835794282408,base_link,0,1,40.3548317,-3.7440749,707.57654448,0.960400037384,0.0,0.0,0.0,0.960400037384,0.0,0.0,0.0,4.28489972363,1
1574069836057043135,188,1574069836056635913,base_link,0,1,40.3548318,-3.7440752,707.586544834,0.960400037384,0.0,0.0,0.0,0.960400037384,0.0,0.0,0.0,4.28489972363,1
1574069836306823347,189,1574069836306571828,base_link,0,1,40.3548319,-3.7440752,707.596544931,0.960400037384,0.0,0.0,0.0,0.960400037384,0.0,0.0,0.0,4.28489972363,1
1574069836575213134,190,1574069836574947623,base_link,0,1,40.3548319,-3.7440751,707.606544845,0.960400037384,0.0,0.0,0.0,0.960400037384,0.0,0.0,0.0,4.28489972363,1
1574069836832152616,191,1574069836831905507,base_link,0,1,40.3548319,-3.7440751,707.616544845,0.960400037384,0.0,0.0,0.0,0.960400037384,0.0,0.0,0.0,4.28489972363,1
1574069837120648024,192,1574069837120338491,base_link,0,1,40.3548319,-3.7440753,707.606545017,0.960400037384,0.0,0.0,0.0,0.960400037384,0.0,0.0,0.0,4.28489972363,1
1574069837409190314,193,1574069837408997839,base_link,0,1,40.3548318,-3.7440756,707.606545179,0.960400037384,0.0,0.0,0.0,0.960400037384,0.0,0.0,0.0,4.28489972363,1
1574069837646648137,194,1574069837646178303,base_link,0,1,40.3548318,-3.744076,707.606545524,0.960400037384,0.0,0.0,0.0,0.960400037384,0.0,0.0,0.0,4.28489972363,1
1574069837895113241,195,1574069837894889986,base_link,0,1,40.3548315,-3.7440765,707.606545665,0.960400037384,0.0,0.0,0.0,0.960400037384,0.0,0.0,0.0,6.8120994524,1
1574069838156862509,196,1574069838156417813,base_link,0,1,40.3548313,-3.7440769,707.616545816,0.960400037384,0.0,0.0,0.0,0.960400037384,0.0,0.0,0.0,4.28489972363,1
1574069838410766033,197,1574069838410511896,base_link,0,1,40.354831,-3.7440771,707.626545699,0.960400037384,0.0,0.0,0.0,0.960400037384,0.0,0.0,0.0,4.28489972363,1
1574069838671710237,198,1574069838671275287,base_link,0,1,40.3548309,-3.7440773,707.646545775,0.960400037384,0.0,0.0,0.0,0.960400037384,0.0,0.0,0.0,4.28489972363,1
1574069838929454546,199,1574069838929129414,base_link,0,1,40.3548307,-3.7440774,707.656545668,0.960400037384,0.0,0.0,0.0,0.960400037384,0.0,0.0,0.0,4.28489972363,1
1574069839190050879,200,1574069839189589426,base_link,0,1,40.3548306,-3.7440778,707.666545916,0.960400037384,0.0,0.0,0.0,0.960400037384,0.0,0.0,0.0,4.28489972363,1
1574069839451640693,201,1574069839451369191,base_link,0,1,40.3548306,-3.7440782,707.66654626,0.960400037384,0.0,0.0,0.0,0.960400037384,0.0,0.0,0.0,4.28489972363,1
1574069839710147733,202,1574069839709574687,base_link,0,1,40.3548306,-3.7440786,707.676546605,0.960400037384,0.0,0.0,0.0,0.960400037384,0.0,0.0,0.0,4.28489972363,1
1574069840003751078,203,1574069840003441579,base_link,0,1,40.3548306,-3.7440791,707.686547035,0.960400037384,0.0,0.0,0.0,0.960400037384,0.0,0.0,0.0,4.28489972363,1
1574069840296062215,204,1574069840295636520,base_link,0,1,40.3548307,-3.7440795,707.696547476,0.960400037384,0.0,0.0,0.0,0.960400037384,0.0,0.0,0.0,4.28489972363,1
1574069840558496919,205,1574069840558263583,base_link,0,1,40.3548311,-3.7440797,707.706548035,0.960400037384,0.0,0.0,0.0,0.960400037384,0.0,0.0,0.0,4.28489972363,1
1574069840830173453,206,1574069840829653109,base_link,0,1,40.3548313,-3.7440799,707.7165484,0.960400037384,0.0,0.0,0.0,0.960400037384,0.0,0.0,0.0,4.28489972363,1
1574069841081381839,207,1574069841081090399,base_link,0,1,40.3548313,-3.7440799,707.7165484,0.960400037384,0.0,0.0,0.0,0.960400037384,0.0,0.0,0.0,4.28489972363,1
1574069841333067436,208,1574069841332663738,base_link,0,1,40.3548314,-3.7440798,707.71654841,0.960400037384,0.0,0.0,0.0,0.960400037384,0.0,0.0,0.0,4.28489972363,1
1574069841611631246,209,1574069841611426696,base_link,0,1,40.3548315,-3.7440798,707.716548507,0.960400037384,0.0,0.0,0.0,0.960400037384,0.0,0.0,0.0,4.28489972363,1
1574069841876304266,210,1574069841875967235,base_link,0,1,40.3548317,-3.7440799,707.706548786,0.960400037384,0.0,0.0,0.0,0.960400037384,0.0,0.0,0.0,4.28489972363,1
1574069842135946038,211,1574069842135733499,base_link,0,1,40.3548318,-3.7440806,707.686549486,0.960400037384,0.0,0.0,0.0,0.960400037384,0.0,0.0,0.0,4.28489972363,1
1574069842388451245,212,1574069842388159982,base_link,0,1,40.3548319,-3.7440811,707.676550013,0.960400037384,0.0,0.0,0.0,0.960400037384,0.0,0.0,0.0,4.28489972363,1
1574069842685183903,213,1574069842684768188,base_link,0,1,40.3548321,-3.7440813,707.656550378,0.960400037384,0.0,0.0,0.0,0.960400037384,0.0,0.0,0.0,4.28489972363,1
1574069842984215514,214,1574069842983952403,base_link,0,1,40.3548322,-3.7440814,707.636550561,0.960400037384,0.0,0.0,0.0,0.960400037384,0.0,0.0,0.0,4.28489972363,1
1574069843227318320,215,1574069843226883623,base_link,0,1,40.3548321,-3.7440816,707.616550637,0.960400037384,0.0,0.0,0.0,0.960400037384,0.0,0.0,0.0,4.28489972363,1
1574069843512176679,216,1574069843511934908,base_link,0,1,40.3548321,-3.7440819,707.606550895,0.960400037384,0.0,0.0,0.0,0.960400037384,0.0,0.0,0.0,4.28489972363,1
1574069843792840800,217,1574069843792429504,base_link,0,1,40.3548319,-3.7440822,707.57655096,0.960400037384,0.0,0.0,0.0,0.960400037384,0.0,0.0,0.0,4.28489972363,1
1574069844045139777,218,1574069844044892065,base_link,0,1,40.3548319,-3.7440824,707.566551133,0.960400037384,0.0,0.0,0.0,0.960400037384,0.0,0.0,0.0,4.28489972363,1
1574069844311788043,219,1574069844311425366,base_link,0,1,40.354832,-3.7440824,707.526551229,0.960400037384,0.0,0.0,0.0,0.960400037384,0.0,0.0,0.0,4.28489972363,1
1574069844629745897,220,1574069844629463488,base_link,0,1,40.3548321,-3.7440824,707.486551326,0.960400037384,0.0,0.0,0.0,0.960400037384,0.0,0.0,0.0,4.28489972363,1
1574069844838686372,221,1574069844838280016,base_link,0,1,40.3548324,-3.7440827,707.446551874,0.960400037384,0.0,0.0,0.0,0.960400037384,0.0,0.0,0.0,4.28489972363,1
1574069845092622121,222,1574069845092395160,base_link,0,1,40.3548327,-3.744083,707.366552422,0.960400037384,0.0,0.0,0.0,0.960400037384,0.0,0.0,0.0,4.28489972363,1
1574069845348849190,223,1574069845348481662,base_link,0,1,40.3548332,-3.7440832,707.256553076,0.960400037384,0.0,0.0,0.0,0.960400037384,0.0,0.0,0.0,4.28489972363,1
1574069845611932359,224,1574069845611582841,base_link,0,1,40.3548334,-3.7440835,707.136553528,0.960400037384,0.0,0.0,0.0,0.960400037384,0.0,0.0,0.0,4.28489972363,1
1574069845927967404,225,1574069845927524509,base_link,0,1,40.3548334,-3.7440834,707.006553442,0.960400037384,0.0,0.0,0.0,0.960400037384,0.0,0.0,0.0,4.28489972363,1
1574069846172430777,226,1574069846172162575,base_link,0,1,40.3548336,-3.7440833,706.896553549,0.960400037384,0.0,0.0,0.0,0.960400037384,0.0,0.0,0.0,4.28489972363,1
1574069846432607111,227,1574069846432210797,base_link,0,1,40.3548337,-3.7440835,706.826553817,0.960400037384,0.0,0.0,0.0,0.960400037384,0.0,0.0,0.0,4.28489972363,1
1574069846669767597,228,1574069846669525145,base_link,0,1,40.3548338,-3.7440839,706.786554259,0.960400037384,0.0,0.0,0.0,0.960400037384,0.0,0.0,0.0,4.28489972363,1
1574069846910569881,229,1574069846910184263,base_link,0,1,40.3548338,-3.7440841,706.736554431,0.960400037384,0.0,0.0,0.0,0.960400037384,0.0,0.0,0.0,4.28489972363,1
1574069847146979303,230,1574069847146716261,base_link,0,1,40.3548338,-3.7440841,706.666554431,0.960400037384,0.0,0.0,0.0,0.960400037384,0.0,0.0,0.0,4.28489972363,1
1574069847392996025,231,1574069847392565122,base_link,0,1,40.354834,-3.744084,706.556554538,0.960400037384,0.0,0.0,0.0,0.960400037384,0.0,0.0,0.0,4.28489972363,1
1574069847630316227,232,1574069847629981769,base_link,0,1,40.3548342,-3.744084,706.436554731,0.960400037384,0.0,0.0,0.0,0.960400037384,0.0,0.0,0.0,4.28489972363,1
1574069847873299080,233,1574069847872797929,base_link,0,1,40.3548344,-3.7440838,706.336554752,0.960400037384,0.0,0.0,0.0,0.960400037384,0.0,0.0,0.0,4.28489972363,1
1574069848109575007,234,1574069848109303796,base_link,0,1,40.3548345,-3.7440841,706.236555107,0.960400037384,0.0,0.0,0.0,0.960400037384,0.0,0.0,0.0,4.28489972363,1
1574069848353121454,235,1574069848352677069,base_link,0,1,40.3548344,-3.744084,706.156554924,0.960400037384,0.0,0.0,0.0,0.960400037384,0.0,0.0,0.0,4.28489972363,1
1574069848591822195,236,1574069848591597590,base_link,0,1,40.3548347,-3.7440835,706.086554783,0.960400037384,0.0,0.0,0.0,0.960400037384,0.0,0.0,0.0,4.28489972363,1
1574069848829832606,237,1574069848829646019,base_link,0,1,40.3548356,-3.7440828,706.046555049,0.960400037384,0.0,0.0,0.0,0.960400037384,0.0,0.0,0.0,4.28489972363,1
1574069849072735936,238,1574069849072288505,base_link,0,1,40.3548367,-3.7440817,706.036555163,0.960400037384,0.0,0.0,0.0,0.960400037384,0.0,0.0,0.0,4.28489972363,1
1574069849310475584,239,1574069849310093451,base_link,0,1,40.354838,-3.7440807,706.046555557,0.960400037384,0.0,0.0,0.0,0.960400037384,0.0,0.0,0.0,4.28489972363,1
1574069849552226184,240,1574069849551774748,base_link,0,1,40.3548393,-3.7440798,706.066556036,0.960400037384,0.0,0.0,0.0,0.960400037384,0.0,0.0,0.0,4.28489972363,1
1574069849791384492,241,1574069849791119146,base_link,0,1,40.3548399,-3.7440791,706.096556013,0.960400037384,0.0,0.0,0.0,0.960400037384,0.0,0.0,0.0,4.28489972363,1
1574069850028159354,242,1574069850027682196,base_link,0,1,40.3548402,-3.7440782,706.126555527,0.960400037384,0.0,0.0,0.0,0.960400037384,0.0,0.0,0.0,4.28489972363,1
1574069850266854327,243,1574069850266559114,base_link,0,1,40.3548399,-3.7440772,706.146554376,0.960400037384,0.0,0.0,0.0,0.960400037384,0.0,0.0,0.0,4.28489972363,1
1574069850512361906,244,1574069850512004722,base_link,0,1,40.3548399,-3.7440763,706.176553601,0.960400037384,0.0,0.0,0.0,0.960400037384,0.0,0.0,0.0,4.28489972363,1
1574069850750054974,245,1574069850749732222,base_link,0,1,40.3548399,-3.7440754,706.206552826,0.960400037384,0.0,0.0,0.0,0.960400037384,0.0,0.0,0.0,4.28489972363,1
1574069850990186191,246,1574069850989959846,base_link,0,1,40.3548402,-3.7440747,706.236552512,0.960400037384,0.0,0.0,0.0,0.960400037384,0.0,0.0,0.0,4.28489972363,1
1574069851231264694,247,1574069851231065465,base_link,0,1,40.3548406,-3.7440743,706.256552554,0.960400037384,0.0,0.0,0.0,0.960400037384,0.0,0.0,0.0,4.28489972363,1
1574069851469527080,248,1574069851469259890,base_link,0,1,40.3548409,-3.7440739,706.286552499,0.960400037384,0.0,0.0,0.0,0.960400037384,0.0,0.0,0.0,4.28489972363,1
1574069851710379033,249,1574069851709866245,base_link,0,1,40.354841,-3.7440735,706.316552251,0.960400037384,0.0,0.0,0.0,0.960400037384,0.0,0.0,0.0,4.28489972363,1
1574069851946815895,250,1574069851946533247,base_link,0,1,40.3548411,-3.7440731,706.336552003,0.960400037384,0.0,0.0,0.0,0.960400037384,0.0,0.0,0.0,4.28489972363,1
1574069852192544397,251,1574069852192084462,base_link,0,1,40.3548412,-3.7440727,706.356551755,0.960400037384,0.0,0.0,0.0,0.960400037384,0.0,0.0,0.0,4.28489972363,1
1574069852429909667,252,1574069852429709025,base_link,0,1,40.3548414,-3.744072,706.386551345,0.960400037384,0.0,0.0,0.0,0.960400037384,0.0,0.0,0.0,4.28489972363,1
1574069852666119060,253,1574069852665843178,base_link,0,1,40.3548415,-3.7440716,706.406551097,0.960400037384,0.0,0.0,0.0,0.960400037384,0.0,0.0,0.0,4.28489972363,1
1574069852911604046,254,1574069852911280295,base_link,0,1,40.3548415,-3.7440711,706.416550667,0.980100018883,0.0,0.0,0.0,0.980100018883,0.0,0.0,0.0,6.8120994524,1
1574069853150031194,255,1574069853149586047,base_link,0,1,40.3548416,-3.7440707,706.426550419,0.980100018883,0.0,0.0,0.0,0.980100018883,0.0,0.0,0.0,6.8120994524,1
1574069853389986633,256,1574069853389558271,base_link,0,1,40.3548418,-3.7440706,706.436550526,0.980100018883,0.0,0.0,0.0,0.980100018883,0.0,0.0,0.0,6.8120994524,1
1574069853631819725,257,1574069853631557197,base_link,0,1,40.354842,-3.7440704,706.456550546,0.980100018883,0.0,0.0,0.0,0.980100018883,0.0,0.0,0.0,6.8120994524,1
1574069853870571402,258,1574069853870129271,base_link,0,1,40.3548424,-3.7440702,706.46655076,0.980100018883,0.0,0.0,0.0,0.980100018883,0.0,0.0,0.0,6.8120994524,1
1574069854109943325,259,1574069854109728059,base_link,0,1,40.3548427,-3.7440702,706.46655105,0.980100018883,0.0,0.0,0.0,0.980100018883,0.0,0.0,0.0,6.8120994524,1
1574069854353084506,260,1574069854352655004,base_link,0,1,40.3548428,-3.7440703,706.476551233,0.980100018883,0.0,0.0,0.0,0.980100018883,0.0,0.0,0.0,6.8120994524,1
1574069854591478937,261,1574069854591224791,base_link,0,1,40.3548428,-3.7440704,706.486551319,0.980100018883,0.0,0.0,0.0,0.980100018883,0.0,0.0,0.0,6.8120994524,1
1574069854831890385,262,1574069854831493342,base_link,0,1,40.3548429,-3.7440705,706.486551501,0.980100018883,0.0,0.0,0.0,0.980100018883,0.0,0.0,0.0,6.8120994524,1
1574069855069708474,263,1574069855069377870,base_link,0,1,40.3548432,-3.7440705,706.486551791,0.980100018883,0.0,0.0,0.0,0.980100018883,0.0,0.0,0.0,6.8120994524,1
1574069855310855536,264,1574069855310366143,base_link,0,1,40.3548433,-3.7440707,706.48655206,0.980100018883,0.0,0.0,0.0,0.980100018883,0.0,0.0,0.0,6.8120994524,1
1574069855549973318,265,1574069855549688034,base_link,0,1,40.3548434,-3.7440708,706.486552242,0.980100018883,0.0,0.0,0.0,0.980100018883,0.0,0.0,0.0,6.8120994524,1
1574069855792540648,266,1574069855792085943,base_link,0,1,40.3548433,-3.7440708,706.476552146,0.980100018883,0.0,0.0,0.0,0.980100018883,0.0,0.0,0.0,6.8120994524,1
1574069856030091532,267,1574069856029857871,base_link,0,1,40.3548432,-3.7440705,706.476551791,0.980100018883,0.0,0.0,0.0,0.980100018883,0.0,0.0,0.0,6.8120994524,1
1574069856270987655,268,1574069856270555408,base_link,0,1,40.354843,-3.7440702,706.456551339,0.980100018883,0.0,0.0,0.0,0.980100018883,0.0,0.0,0.0,6.8120994524,1
1574069856509684247,269,1574069856509250532,base_link,0,1,40.3548427,-3.74407,706.446550878,0.980100018883,0.0,0.0,0.0,0.980100018883,0.0,0.0,0.0,6.8120994524,1
1574069856750009813,270,1574069856749573710,base_link,0,1,40.3548424,-3.7440701,706.436550674,0.980100018883,0.0,0.0,0.0,0.980100018883,0.0,0.0,0.0,6.8120994524,1
1574069856992120200,271,1574069856991735475,base_link,0,1,40.3548421,-3.7440702,706.416550471,0.980100018883,0.0,0.0,0.0,0.980100018883,0.0,0.0,0.0,6.8120994524,1
1574069857227148624,272,1574069857226725709,base_link,0,1,40.354842,-3.7440701,706.396550288,0.980100018883,0.0,0.0,0.0,0.980100018883,0.0,0.0,0.0,6.8120994524,1
1574069857470092338,273,1574069857469796764,base_link,0,1,40.3548422,-3.74407,706.386550395,0.980100018883,0.0,0.0,0.0,0.980100018883,0.0,0.0,0.0,6.8120994524,1
1574069857712668936,274,1574069857712244857,base_link,0,1,40.3548424,-3.7440701,706.376550674,0.980100018883,0.0,0.0,0.0,0.980100018883,0.0,0.0,0.0,6.8120994524,1
1574069857949103587,275,1574069857948832692,base_link,0,1,40.3548426,-3.7440701,706.366550867,0.980100018883,0.0,0.0,0.0,0.980100018883,0.0,0.0,0.0,6.8120994524,1
1574069858190033572,276,1574069858189567009,base_link,0,1,40.3548428,-3.74407,706.366550974,0.980100018883,0.0,0.0,0.0,0.980100018883,0.0,0.0,0.0,6.8120994524,1
1574069858429498362,277,1574069858429175508,base_link,0,1,40.3548429,-3.7440698,706.356550898,0.980100018883,0.0,0.0,0.0,0.980100018883,0.0,0.0,0.0,6.8120994524,1
1574069858672172535,278,1574069858671738635,base_link,0,1,40.354843,-3.7440697,706.346550909,0.980100018883,0.0,0.0,0.0,0.980100018883,0.0,0.0,0.0,6.8120994524,1
1574069858911702982,279,1574069858911481350,base_link,0,1,40.3548431,-3.7440697,706.346551005,0.960400037384,0.0,0.0,0.0,0.960400037384,0.0,0.0,0.0,4.28489972363,1
1574069859151713357,280,1574069859151248061,base_link,0,1,40.3548431,-3.7440695,706.336550833,0.960400037384,0.0,0.0,0.0,0.960400037384,0.0,0.0,0.0,4.28489972363,1
1574069859389128738,281,1574069859388770980,base_link,0,1,40.3548427,-3.7440693,706.326550275,0.960400037384,0.0,0.0,0.0,0.960400037384,0.0,0.0,0.0,4.28489972363,1
1574069859631029731,282,1574069859630590139,base_link,0,1,40.3548424,-3.7440692,706.316549899,0.960400037384,0.0,0.0,0.0,0.960400037384,0.0,0.0,0.0,4.28489972363,1
1574069859871096521,283,1574069859870908514,base_link,0,1,40.3548422,-3.744069,706.316549534,0.960400037384,0.0,0.0,0.0,0.960400037384,0.0,0.0,0.0,4.28489972363,1
1574069860110099665,284,1574069860109611912,base_link,0,1,40.3548418,-3.744069,706.306549147,0.960400037384,0.0,0.0,0.0,0.960400037384,0.0,0.0,0.0,4.28489972363,1
1574069860352889434,285,1574069860352649479,base_link,0,1,40.3548414,-3.744069,706.296548761,0.960400037384,0.0,0.0,0.0,0.960400037384,0.0,0.0,0.0,4.28489972363,1
1574069860592306798,286,1574069860591964735,base_link,0,1,40.3548412,-3.7440689,706.296548482,0.960400037384,0.0,0.0,0.0,0.960400037384,0.0,0.0,0.0,4.28489972363,1
1574069860830745469,287,1574069860830484912,base_link,0,1,40.3548412,-3.7440688,706.296548396,0.960400037384,0.0,0.0,0.0,0.960400037384,0.0,0.0,0.0,4.28489972363,1
1574069861064440587,288,1574069861063975557,base_link,0,1,40.3548412,-3.7440685,706.286548138,0.960400037384,0.0,0.0,0.0,0.960400037384,0.0,0.0,0.0,4.28489972363,1
1574069861310924616,289,1574069861310784947,base_link,0,1,40.3548412,-3.7440685,706.286548138,0.960400037384,0.0,0.0,0.0,0.960400037384,0.0,0.0,0.0,4.28489972363,1
1574069861549200334,290,1574069861548998605,base_link,0,1,40.3548414,-3.7440684,706.296548245,0.960400037384,0.0,0.0,0.0,0.960400037384,0.0,0.0,0.0,4.28489972363,1
1574069861789353109,291,1574069861789022586,base_link,0,1,40.3548415,-3.7440682,706.306548169,0.980100018883,0.0,0.0,0.0,0.980100018883,0.0,0.0,0.0,6.8120994524,1
1574069862030099197,292,1574069862029601876,base_link,0,1,40.3548415,-3.7440681,706.316548083,0.960400037384,0.0,0.0,0.0,0.960400037384,0.0,0.0,0.0,4.28489972363,1
1574069862271704415,293,1574069862271423106,base_link,0,1,40.3548416,-3.744068,706.316548093,0.960400037384,0.0,0.0,0.0,0.960400037384,0.0,0.0,0.0,4.28489972363,1
1574069862511901312,294,1574069862511458503,base_link,0,1,40.3548418,-3.7440681,706.326548372,0.960400037384,0.0,0.0,0.0,0.960400037384,0.0,0.0,0.0,4.28489972363,1
1574069862745519733,295,1574069862745283160,base_link,0,1,40.3548421,-3.7440682,706.336548748,0.960400037384,0.0,0.0,0.0,0.960400037384,0.0,0.0,0.0,4.28489972363,1
1574069862989678991,296,1574069862989253067,base_link,0,1,40.3548424,-3.7440682,706.336549038,0.960400037384,0.0,0.0,0.0,0.960400037384,0.0,0.0,0.0,4.28489972363,1
1574069863229295243,297,1574069863229059933,base_link,0,1,40.3548427,-3.7440682,706.346549327,0.960400037384,0.0,0.0,0.0,0.960400037384,0.0,0.0,0.0,4.28489972363,1
1574069863471891672,298,1574069863471489455,base_link,0,1,40.3548429,-3.7440681,706.356549434,0.960400037384,0.0,0.0,0.0,0.960400037384,0.0,0.0,0.0,4.28489972363,1
1574069863711545407,299,1574069863711281527,base_link,0,1,40.3548431,-3.7440682,706.376549713,0.960400037384,0.0,0.0,0.0,0.960400037384,0.0,0.0,0.0,4.28489972363,1
1574069863952651993,300,1574069863952169305,base_link,0,1,40.3548433,-3.7440683,706.386549993,0.960400037384,0.0,0.0,0.0,0.960400037384,0.0,0.0,0.0,4.28489972363,1
1574069864190759387,301,1574069864190456708,base_link,0,1,40.3548433,-3.7440683,706.396549993,0.960400037384,0.0,0.0,0.0,0.960400037384,0.0,0.0,0.0,4.28489972363,1
1574069864428603128,302,1574069864428435694,base_link,0,1,40.3548431,-3.7440684,706.416549886,0.960400037384,0.0,0.0,0.0,0.960400037384,0.0,0.0,0.0,4.28489972363,1
1574069864674812996,303,1574069864674482474,base_link,0,1,40.354843,-3.7440685,706.436549875,0.960400037384,0.0,0.0,0.0,0.960400037384,0.0,0.0,0.0,4.28489972363,1
1574069864911101617,304,1574069864910886693,base_link,0,1,40.354843,-3.7440684,706.446549789,0.960400037384,0.0,0.0,0.0,0.960400037384,0.0,0.0,0.0,4.28489972363,1
