%time,field.header.seq,field.header.stamp,field.header.frame_id,field.child_frame_id,field.pose.pose.position.x,field.pose.pose.position.y,field.pose.pose.position.z,field.pose.pose.orientation.x,field.pose.pose.orientation.y,field.pose.pose.orientation.z,field.pose.pose.orientation.w,field.pose.covariance0,field.pose.covariance1,field.pose.covariance2,field.pose.covariance3,field.pose.covariance4,field.pose.covariance5,field.pose.covariance6,field.pose.covariance7,field.pose.covariance8,field.pose.covariance9,field.pose.covariance10,field.pose.covariance11,field.pose.covariance12,field.pose.covariance13,field.pose.covariance14,field.pose.covariance15,field.pose.covariance16,field.pose.covariance17,field.pose.covariance18,field.pose.covariance19,field.pose.covariance20,field.pose.covariance21,field.pose.covariance22,field.pose.covariance23,field.pose.covariance24,field.pose.covariance25,field.pose.covariance26,field.pose.covariance27,field.pose.covariance28,field.pose.covariance29,field.pose.covariance30,field.pose.covariance31,field.pose.covariance32,field.pose.covariance33,field.pose.covariance34,field.pose.covariance35,field.twist.twist.linear.x,field.twist.twist.linear.y,field.twist.twist.linear.z,field.twist.twist.angular.x,field.twist.twist.angular.y,field.twist.twist.angular.z,field.twist.covariance0,field.twist.covariance1,field.twist.covariance2,field.twist.covariance3,field.twist.covariance4,field.twist.covariance5,field.twist.covariance6,field.twist.covariance7,field.twist.covariance8,field.twist.covariance9,field.twist.covariance10,field.twist.covariance11,field.twist.covariance12,field.twist.covariance13,field.twist.covariance14,field.twist.covariance15,field.twist.covariance16,field.twist.covariance17,field.twist.covariance18,field.twist.covariance19,field.twist.covariance20,field.twist.covariance21,field.twist.covariance22,field.twist.covariance23,field.twist.covariance24,field.twist.covariance25,field.twist.covariance26,field.twist.covariance27,field.twist.covariance28,field.twist.covariance29,field.twist.covariance30,field.twist.covariance31,field.twist.covariance32,field.twist.covariance33,field.twist.covariance34,field.twist.covariance35
1574069785712526421,53,1574069785712273355,map,base_link,4.52834590207,0.344268124435,-0.863,-0.00762118484202,-0.00468710425595,-0.234685298668,-0.972030225448,0.722500040531,0.0,0.0,0.0,0.0,0.0,0.0,0.722500040531,0.0,0.0,0.0,0.0,0.0,0.0,2.01639987812,0.0,0.0,0.0,0.0,0.0,0.0,99999.0,0.0,0.0,0.0,0.0,0.0,0.0,99999.0,0.0,0.0,0.0,0.0,0.0,0.0,99999.0,0.14,0.07,0.06,0.0,0.0,0.0,-1.0,0.0,0.0,0.0,0.0,0.0,0.0,0.0,0.0,0.0,0.0,0.0,0.0,0.0,0.0,0.0,0.0,0.0,0.0,0.0,0.0,0.0,0.0,0.0,0.0,0.0,0.0,0.0,0.0,0.0,0.0,0.0,0.0,0.0,0.0,0.0
1574069785952265811,54,1574069785951754837,map,base_link,4.55383379709,0.288741241919,-0.881,-0.00784475057036,-0.00450288658007,-0.234648046319,-0.972038311107,0.722500040531,0.0,0.0,0.0,0.0,0.0,0.0,0.722500040531,0.0,0.0,0.0,0.0,0.0,0.0,2.01639987812,0.0,0.0,0.0,0.0,0.0,0.0,99999.0,0.0,0.0,0.0,0.0,0.0,0.0,99999.0,0.0,0.0,0.0,0.0,0.0,0.0,99999.0,0.12,0.03,0.06,0.0,0.0,0.0,-1.0,0.0,0.0,0.0,0.0,0.0,0.0,0.0,0.0,0.0,0.0,0.0,0.0,0.0,0.0,0.0,0.0,0.0,0.0,0.0,0.0,0.0,0.0,0.0,0.0,0.0,0.0,0.0,0.0,0.0,0.0,0.0,0.0,0.0,0.0,0.0
1574069786192719763,55,1574069786192365652,map,base_link,4.5708257611,0.199898217726,-0.897,-0.00812040129026,-0.0042727984564,-0.234578753277,-0.972053810644,0.722500040531,0.0,0.0,0.0,0.0,0.0,0.0,0.722500040531,0.0,0.0,0.0,0.0,0.0,0.0,2.01639987812,0.0,0.0,0.0,0.0,0.0,0.0,99999.0,0.0,0.0,0.0,0.0,0.0,0.0,99999.0,0.0,0.0,0.0,0.0,0.0,0.0,99999.0,0.11,0.0,0.06,0.0,0.0,0.0,-1.0,0.0,0.0,0.0,0.0,0.0,0.0,0.0,0.0,0.0,0.0,0.0,0.0,0.0,0.0,0.0,0.0,0.0,0.0,0.0,0.0,0.0,0.0,0.0,0.0,0.0,0.0,0.0,0.0,0.0,0.0,0.0,0.0,0.0,0.0,0.0
1574069786433306525,56,1574069786432829361,map,base_link,4.57932173969,0.155476705393,-0.908,-0.00840423157,-0.00401012163431,-0.234530372136,-0.972064191482,0.722500040531,0.0,0.0,0.0,0.0,0.0,0.0,0.722500040531,0.0,0.0,0.0,0.0,0.0,0.0,2.01639987812,0.0,0.0,0.0,0.0,0.0,0.0,99999.0,0.0,0.0,0.0,0.0,0.0,0.0,99999.0,0.0,0.0,0.0,0.0,0.0,0.0,99999.0,0.09,-0.01,0.06,0.0,0.0,0.0,-1.0,0.0,0.0,0.0,0.0,0.0,0.0,0.0,0.0,0.0,0.0,0.0,0.0,0.0,0.0,0.0,0.0,0.0,0.0,0.0,0.0,0.0,0.0,0.0,0.0,0.0,0.0,0.0,0.0,0.0,0.0,0.0,0.0,0.0,0.0,0.0
1574069786666894851,57,1574069786666516517,map,base_link,4.6048096086,0.155476720756,-0.916,-0.00848870438633,-0.0038940964752,-0.234552424653,-0.972058608315,0.722500040531,0.0,0.0,0.0,0.0,0.0,0.0,0.722500040531,0.0,0.0,0.0,0.0,0.0,0.0,2.01639987812,0.0,0.0,0.0,0.0,0.0,0.0,99999.0,0.0,0.0,0.0,0.0,0.0,0.0,99999.0,0.0,0.0,0.0,0.0,0.0,0.0,99999.0,0.08,-0.01,0.06,0.0,0.0,0.0,-1.0,0.0,0.0,0.0,0.0,0.0,0.0,0.0,0.0,0.0,0.0,0.0,0.0,0.0,0.0,0.0,0.0,0.0,0.0,0.0,0.0,0.0,0.0,0.0,0.0,0.0,0.0,0.0,0.0,0.0,0.0,0.0,0.0,0.0,0.0,0.0
1574069786912718990,58,1574069786912236939,map,base_link,4.63029747015,0.155476736189,-0.931,-0.00841163517399,-0.00383170561874,-0.234527380689,-0.972065568845,0.722500040531,0.0,0.0,0.0,0.0,0.0,0.0,0.722500040531,0.0,0.0,0.0,0.0,0.0,0.0,2.01639987812,0.0,0.0,0.0,0.0,0.0,0.0,99999.0,0.0,0.0,0.0,0.0,0.0,0.0,99999.0,0.0,0.0,0.0,0.0,0.0,0.0,99999.0,0.07,0.0,0.07,0.0,0.0,0.0,-1.0,0.0,0.0,0.0,0.0,0.0,0.0,0.0,0.0,0.0,0.0,0.0,0.0,0.0,0.0,0.0,0.0,0.0,0.0,0.0,0.0,0.0,0.0,0.0,0.0,0.0,0.0,0.0,0.0,0.0,0.0,0.0,0.0,0.0,0.0,0.0
1574069787152263542,59,1574069787151945599,map,base_link,4.64728936647,0.177687504169,-0.947,-0.00825910729944,-0.00383209051658,-0.234504787148,-0.97207232603,0.960400037384,0.0,0.0,0.0,0.0,0.0,0.0,0.960400037384,0.0,0.0,0.0,0.0,0.0,0.0,4.32639968262,0.0,0.0,0.0,0.0,0.0,0.0,99999.0,0.0,0.0,0.0,0.0,0.0,0.0,99999.0,0.0,0.0,0.0,0.0,0.0,0.0,99999.0,0.06,0.0,0.07,0.0,0.0,0.0,-1.0,0.0,0.0,0.0,0.0,0.0,0.0,0.0,0.0,0.0,0.0,0.0,0.0,0.0,0.0,0.0,0.0,0.0,0.0,0.0,0.0,0.0,0.0,0.0,0.0,0.0,0.0,0.0,0.0,0.0,0.0,0.0,0.0,0.0,0.0,0.0
1574069787393173064,60,1574069787392729551,map,base_link,4.66428127602,0.166582135139,-0.96,-0.00813195429701,-0.00378735645852,-0.234542563664,-0.972064459324,0.960400037384,0.0,0.0,0.0,0.0,0.0,0.0,0.960400037384,0.0,0.0,0.0,0.0,0.0,0.0,4.32639968262,0.0,0.0,0.0,0.0,0.0,0.0,99999.0,0.0,0.0,0.0,0.0,0.0,0.0,99999.0,0.0,0.0,0.0,0.0,0.0,0.0,99999.0,0.05,0.0,0.08,0.0,0.0,0.0,-1.0,0.0,0.0,0.0,0.0,0.0,0.0,0.0,0.0,0.0,0.0,0.0,0.0,0.0,0.0,0.0,0.0,0.0,0.0,0.0,0.0,0.0,0.0,0.0,0.0,0.0,0.0,0.0,0.0,0.0,0.0,0.0,0.0,0.0,0.0,0.0
1574069787635819085,61,1574069787635570638,map,base_link,4.68976919341,0.0999498760631,-0.966,-0.00816699775454,-0.00369788800433,-0.234511614253,-0.972071977043,0.960400037384,0.0,0.0,0.0,0.0,0.0,0.0,0.960400037384,0.0,0.0,0.0,0.0,0.0,0.0,4.32639968262,0.0,0.0,0.0,0.0,0.0,0.0,99999.0,0.0,0.0,0.0,0.0,0.0,0.0,99999.0,0.0,0.0,0.0,0.0,0.0,0.0,99999.0,0.05,-0.02,0.07,0.0,0.0,0.0,-1.0,0.0,0.0,0.0,0.0,0.0,0.0,0.0,0.0,0.0,0.0,0.0,0.0,0.0,0.0,0.0,0.0,0.0,0.0,0.0,0.0,0.0,0.0,0.0,0.0,0.0,0.0,0.0,0.0,0.0,0.0,0.0,0.0,0.0,0.0,0.0
1574069787875271672,62,1574069787874802230,map,base_link,4.69826518637,0.0333176060504,-0.972,-0.0083858521853,-0.00361989864289,-0.234486903425,-0.972076368368,0.960400037384,0.0,0.0,0.0,0.0,0.0,0.0,0.960400037384,0.0,0.0,0.0,0.0,0.0,0.0,4.32639968262,0.0,0.0,0.0,0.0,0.0,0.0,99999.0,0.0,0.0,0.0,0.0,0.0,0.0,99999.0,0.0,0.0,0.0,0.0,0.0,0.0,99999.0,0.03,-0.05,0.07,0.0,0.0,0.0,-1.0,0.0,0.0,0.0,0.0,0.0,0.0,0.0,0.0,0.0,0.0,0.0,0.0,0.0,0.0,0.0,0.0,0.0,0.0,0.0,0.0,0.0,0.0,0.0,0.0,0.0,0.0,0.0,0.0,0.0,0.0,0.0,0.0,0.0,0.0,0.0
1574069788112820506,63,1574069788112376565,map,base_link,4.71525711782,0.0111068574584,-0.978,-0.00854835033375,-0.0035275356847,-0.234472696634,-0.972078719411,0.960400037384,0.0,0.0,0.0,0.0,0.0,0.0,0.960400037384,0.0,0.0,0.0,0.0,0.0,0.0,4.32639968262,0.0,0.0,0.0,0.0,0.0,0.0,99999.0,0.0,0.0,0.0,0.0,0.0,0.0,99999.0,0.0,0.0,0.0,0.0,0.0,0.0,99999.0,0.02,-0.05,0.07,0.0,0.0,0.0,-1.0,0.0,0.0,0.0,0.0,0.0,0.0,0.0,0.0,0.0,0.0,0.0,0.0,0.0,0.0,0.0,0.0,0.0,0.0,0.0,0.0,0.0,0.0,0.0,0.0,0.0,0.0,0.0,0.0,0.0,0.0,0.0,0.0,0.0,0.0,0.0
1574069788353974094,64,1574069788353414958,map,base_link,4.74074497269,0.0333176323284,-0.981,-0.00849511963175,-0.00350270244315,-0.234469065859,-0.97208015162,0.960400037384,0.0,0.0,0.0,0.0,0.0,0.0,0.960400037384,0.0,0.0,0.0,0.0,0.0,0.0,4.32639968262,0.0,0.0,0.0,0.0,0.0,0.0,99999.0,0.0,0.0,0.0,0.0,0.0,0.0,99999.0,0.0,0.0,0.0,0.0,0.0,0.0,99999.0,0.02,-0.03,0.07,0.0,0.0,0.0,-1.0,0.0,0.0,0.0,0.0,0.0,0.0,0.0,0.0,0.0,0.0,0.0,0.0,0.0,0.0,0.0,0.0,0.0,0.0,0.0,0.0,0.0,0.0,0.0,0.0,0.0,0.0,0.0,0.0,0.0,0.0,0.0,0.0,0.0,0.0,0.0
1574069788589843882,65,1574069788589586889,map,base_link,4.75773689751,0.033317643071,-0.979,-0.0082645899616,-0.00350230774711,-0.234504769373,-0.972073527844,0.960400037384,0.0,0.0,0.0,0.0,0.0,0.0,0.960400037384,0.0,0.0,0.0,0.0,0.0,0.0,4.32639968262,0.0,0.0,0.0,0.0,0.0,0.0,99999.0,0.0,0.0,0.0,0.0,0.0,0.0,99999.0,0.0,0.0,0.0,0.0,0.0,0.0,99999.0,0.01,-0.03,0.07,0.0,0.0,0.0,-1.0,0.0,0.0,0.0,0.0,0.0,0.0,0.0,0.0,0.0,0.0,0.0,0.0,0.0,0.0,0.0,0.0,0.0,0.0,0.0,0.0,0.0,0.0,0.0,0.0,0.0,0.0,0.0,0.0,0.0,0.0,0.0,0.0,0.0,0.0,0.0
1574069788832654993,66,1574069788832214762,map,base_link,4.77472880757,0.0333176544095,-0.986,-0.00812328660595,-0.00348570895163,-0.234479732115,-0.972080818284,0.960400037384,0.0,0.0,0.0,0.0,0.0,0.0,0.960400037384,0.0,0.0,0.0,0.0,0.0,0.0,4.32639968262,0.0,0.0,0.0,0.0,0.0,0.0,99999.0,0.0,0.0,0.0,0.0,0.0,0.0,99999.0,0.0,0.0,0.0,0.0,0.0,0.0,99999.0,0.0,-0.02,0.07,0.0,0.0,0.0,-1.0,0.0,0.0,0.0,0.0,0.0,0.0,0.0,0.0,0.0,0.0,0.0,0.0,0.0,0.0,0.0,0.0,0.0,0.0,0.0,0.0,0.0,0.0,0.0,0.0,0.0,0.0,0.0,0.0,0.0,0.0,0.0,0.0,0.0,0.0,0.0
1574069789072322951,67,1574069789072036531,map,base_link,4.79172071751,0.033317664784,-0.995,-0.00802101956136,-0.00342572050478,-0.234410079542,-0.972098679298,0.960400037384,0.0,0.0,0.0,0.0,0.0,0.0,0.960400037384,0.0,0.0,0.0,0.0,0.0,0.0,4.32639968262,0.0,0.0,0.0,0.0,0.0,0.0,99999.0,0.0,0.0,0.0,0.0,0.0,0.0,99999.0,0.0,0.0,0.0,0.0,0.0,0.0,99999.0,0.0,-0.02,0.07,0.0,0.0,0.0,-1.0,0.0,0.0,0.0,0.0,0.0,0.0,0.0,0.0,0.0,0.0,0.0,0.0,0.0,0.0,0.0,0.0,0.0,0.0,0.0,0.0,0.0,0.0,0.0,0.0,0.0,0.0,0.0,0.0,0.0,0.0,0.0,0.0,0.0,0.0,0.0
1574069789313013928,68,1574069789312591866,map,base_link,4.81720860792,0.0111069227441,-0.995,-0.00793956671215,-0.00342457221577,-0.234367084072,-0.972109718853,0.960400037384,0.0,0.0,0.0,0.0,0.0,0.0,0.960400037384,0.0,0.0,0.0,0.0,0.0,0.0,4.32639968262,0.0,0.0,0.0,0.0,0.0,0.0,99999.0,0.0,0.0,0.0,0.0,0.0,0.0,99999.0,0.0,0.0,0.0,0.0,0.0,0.0,99999.0,0.0,-0.02,0.07,0.0,0.0,0.0,-1.0,0.0,0.0,0.0,0.0,0.0,0.0,0.0,0.0,0.0,0.0,0.0,0.0,0.0,0.0,0.0,0.0,0.0,0.0,0.0,0.0,0.0,0.0,0.0,0.0,0.0,0.0,0.0,0.0,0.0,0.0,0.0,0.0,0.0,0.0,0.0
1574069789546488432,69,1574069789546171864,map,base_link,4.85119246443,-0.0222091926694,-0.994,-0.0079684654531,-0.00342358995051,-0.234343992724,-0.972115052689,0.960400037384,0.0,0.0,0.0,0.0,0.0,0.0,0.960400037384,0.0,0.0,0.0,0.0,0.0,0.0,4.32639968262,0.0,0.0,0.0,0.0,0.0,0.0,99999.0,0.0,0.0,0.0,0.0,0.0,0.0,99999.0,0.0,0.0,0.0,0.0,0.0,0.0,99999.0,0.0,-0.03,0.06,0.0,0.0,0.0,-1.0,0.0,0.0,0.0,0.0,0.0,0.0,0.0,0.0,0.0,0.0,0.0,0.0,0.0,0.0,0.0,0.0,0.0,0.0,0.0,0.0,0.0,0.0,0.0,0.0,0.0,0.0,0.0,0.0,0.0,0.0,0.0,0.0,0.0,0.0,0.0
1574069789792337067,70,1574069789791880089,map,base_link,4.87668034799,-0.0333145551259,-0.998,-0.00803530119973,-0.00345038720001,-0.234341745308,-0.972114949566,0.722500040531,0.0,0.0,0.0,0.0,0.0,0.0,0.722500040531,0.0,0.0,0.0,0.0,0.0,0.0,2.01639987812,0.0,0.0,0.0,0.0,0.0,0.0,99999.0,0.0,0.0,0.0,0.0,0.0,0.0,99999.0,0.0,0.0,0.0,0.0,0.0,0.0,99999.0,0.0,-0.03,0.06,0.0,0.0,0.0,-1.0,0.0,0.0,0.0,0.0,0.0,0.0,0.0,0.0,0.0,0.0,0.0,0.0,0.0,0.0,0.0,0.0,0.0,0.0,0.0,0.0,0.0,0.0,0.0,0.0,0.0,0.0,0.0,0.0,0.0,0.0,0.0,0.0,0.0,0.0,0.0
1574069790032461974,71,1574069790032167829,map,base_link,4.89367228002,-0.0555253018806,-0.999,-0.00804206308249,-0.00351291209473,-0.234355292835,-0.972111403796,0.960400037384,0.0,0.0,0.0,0.0,0.0,0.0,0.960400037384,0.0,0.0,0.0,0.0,0.0,0.0,4.32639968262,0.0,0.0,0.0,0.0,0.0,0.0,99999.0,0.0,0.0,0.0,0.0,0.0,0.0,99999.0,0.0,0.0,0.0,0.0,0.0,0.0,99999.0,0.0,-0.03,0.06,0.0,0.0,0.0,-1.0,0.0,0.0,0.0,0.0,0.0,0.0,0.0,0.0,0.0,0.0,0.0,0.0,0.0,0.0,0.0,0.0,0.0,0.0,0.0,0.0,0.0,0.0,0.0,0.0,0.0,0.0,0.0,0.0,0.0,0.0,0.0,0.0,0.0,0.0,0.0
1574069790272485128,72,1574069790272064333,map,base_link,4.91066423391,-0.111052186369,-0.997,-0.00805416003972,-0.00345665375328,-0.234282440288,-0.97212906562,0.722500040531,0.0,0.0,0.0,0.0,0.0,0.0,0.722500040531,0.0,0.0,0.0,0.0,0.0,0.0,2.01639987812,0.0,0.0,0.0,0.0,0.0,0.0,99999.0,0.0,0.0,0.0,0.0,0.0,0.0,99999.0,0.0,0.0,0.0,0.0,0.0,0.0,99999.0,-0.01,-0.04,0.06,0.0,0.0,0.0,-1.0,0.0,0.0,0.0,0.0,0.0,0.0,0.0,0.0,0.0,0.0,0.0,0.0,0.0,0.0,0.0,0.0,0.0,0.0,0.0,0.0,0.0,0.0,0.0,0.0,0.0,0.0,0.0,0.0,0.0,0.0,0.0,0.0,0.0,0.0,0.0
1574069790512121768,73,1574069790511908836,map,base_link,4.94464807673,-0.122157543575,-0.997,-0.00807725577618,-0.00344693641684,-0.234232549537,-0.972140930784,0.722500040531,0.0,0.0,0.0,0.0,0.0,0.0,0.722500040531,0.0,0.0,0.0,0.0,0.0,0.0,2.01639987812,0.0,0.0,0.0,0.0,0.0,0.0,99999.0,0.0,0.0,0.0,0.0,0.0,0.0,99999.0,0.0,0.0,0.0,0.0,0.0,0.0,99999.0,-0.01,-0.03,0.06,0.0,0.0,0.0,-1.0,0.0,0.0,0.0,0.0,0.0,0.0,0.0,0.0,0.0,0.0,0.0,0.0,0.0,0.0,0.0,0.0,0.0,0.0,0.0,0.0,0.0,0.0,0.0,0.0,0.0,0.0,0.0,0.0,0.0,0.0,0.0,0.0,0.0,0.0,0.0
1574069790751860085,74,1574069790751707260,map,base_link,4.96163999448,-0.122157532042,-0.997,-0.00800928122994,-0.00351224533395,-0.234238058332,-0.972139932096,0.722500040531,0.0,0.0,0.0,0.0,0.0,0.0,0.722500040531,0.0,0.0,0.0,0.0,0.0,0.0,2.01639987812,0.0,0.0,0.0,0.0,0.0,0.0,99999.0,0.0,0.0,0.0,0.0,0.0,0.0,99999.0,0.0,0.0,0.0,0.0,0.0,0.0,99999.0,-0.01,-0.03,0.06,0.0,0.0,0.0,-1.0,0.0,0.0,0.0,0.0,0.0,0.0,0.0,0.0,0.0,0.0,0.0,0.0,0.0,0.0,0.0,0.0,0.0,0.0,0.0,0.0,0.0,0.0,0.0,0.0,0.0,0.0,0.0,0.0,0.0,0.0,0.0,0.0,0.0,0.0,0.0
1574069790992388834,75,1574069790992110298,map,base_link,4.97863190454,-0.122157521308,-1.003,-0.00794749619645,-0.00354084768992,-0.23423057683,-0.972142138054,0.960400037384,0.0,0.0,0.0,0.0,0.0,0.0,0.960400037384,0.0,0.0,0.0,0.0,0.0,0.0,4.32639968262,0.0,0.0,0.0,0.0,0.0,0.0,99999.0,0.0,0.0,0.0,0.0,0.0,0.0,99999.0,0.0,0.0,0.0,0.0,0.0,0.0,99999.0,-0.01,-0.01,0.06,0.0,0.0,0.0,-1.0,0.0,0.0,0.0,0.0,0.0,0.0,0.0,0.0,0.0,0.0,0.0,0.0,0.0,0.0,0.0,0.0,0.0,0.0,0.0,0.0,0.0,0.0,0.0,0.0,0.0,0.0,0.0,0.0,0.0,0.0,0.0,0.0,0.0,0.0,0.0
1574069791230966882,76,1574069791230517411,map,base_link,4.98712785602,-0.111052135554,-1.008,-0.00781388878349,-0.00354939568599,-0.234218229502,-0.972146164885,0.960400037384,0.0,0.0,0.0,0.0,0.0,0.0,0.960400037384,0.0,0.0,0.0,0.0,0.0,0.0,4.32639968262,0.0,0.0,0.0,0.0,0.0,0.0,99999.0,0.0,0.0,0.0,0.0,0.0,0.0,99999.0,0.0,0.0,0.0,0.0,0.0,0.0,99999.0,-0.02,0.0,0.06,0.0,0.0,0.0,-1.0,0.0,0.0,0.0,0.0,0.0,0.0,0.0,0.0,0.0,0.0,0.0,0.0,0.0,0.0,0.0,0.0,0.0,0.0,0.0,0.0,0.0,0.0,0.0,0.0,0.0,0.0,0.0,0.0,0.0,0.0,0.0,0.0,0.0,0.0,0.0
1574069791471408825,77,1574069791471115168,map,base_link,5.01261574747,-0.133262877655,-1.002,-0.00770449882175,-0.00354860280753,-0.23425803222,-0.972137450393,0.960400037384,0.0,0.0,0.0,0.0,0.0,0.0,0.960400037384,0.0,0.0,0.0,0.0,0.0,0.0,4.32639968262,0.0,0.0,0.0,0.0,0.0,0.0,99999.0,0.0,0.0,0.0,0.0,0.0,0.0,99999.0,0.0,0.0,0.0,0.0,0.0,0.0,99999.0,-0.02,0.0,0.06,0.0,0.0,0.0,-1.0,0.0,0.0,0.0,0.0,0.0,0.0,0.0,0.0,0.0,0.0,0.0,0.0,0.0,0.0,0.0,0.0,0.0,0.0,0.0,0.0,0.0,0.0,0.0,0.0,0.0,0.0,0.0,0.0,0.0,0.0,0.0,0.0,0.0,0.0,0.0
1574069791710169769,78,1574069791709672779,map,base_link,5.03810365434,-0.166578997793,-0.997,-0.00772775838844,-0.00358798500251,-0.234247788523,-0.972139589609,0.960400037384,0.0,0.0,0.0,0.0,0.0,0.0,0.960400037384,0.0,0.0,0.0,0.0,0.0,0.0,4.32639968262,0.0,0.0,0.0,0.0,0.0,0.0,99999.0,0.0,0.0,0.0,0.0,0.0,0.0,99999.0,0.0,0.0,0.0,0.0,0.0,0.0,99999.0,-0.02,-0.01,0.06,0.0,0.0,0.0,-1.0,0.0,0.0,0.0,0.0,0.0,0.0,0.0,0.0,0.0,0.0,0.0,0.0,0.0,0.0,0.0,0.0,0.0,0.0,0.0,0.0,0.0,0.0,0.0,0.0,0.0,0.0,0.0,0.0,0.0,0.0,0.0,0.0,0.0,0.0,0.0
1574069791951746944,79,1574069791951364561,map,base_link,5.06359156105,-0.211000498141,-0.996,-0.00777064253799,-0.00362070393617,-0.234299287822,-0.972126715683,0.960400037384,0.0,0.0,0.0,0.0,0.0,0.0,0.960400037384,0.0,0.0,0.0,0.0,0.0,0.0,4.32639968262,0.0,0.0,0.0,0.0,0.0,0.0,99999.0,0.0,0.0,0.0,0.0,0.0,0.0,99999.0,0.0,0.0,0.0,0.0,0.0,0.0,99999.0,-0.02,-0.02,0.06,0.0,0.0,0.0,-1.0,0.0,0.0,0.0,0.0,0.0,0.0,0.0,0.0,0.0,0.0,0.0,0.0,0.0,0.0,0.0,0.0,0.0,0.0,0.0,0.0,0.0,0.0,0.0,0.0,0.0,0.0,0.0,0.0,0.0,0.0,0.0,0.0,0.0,0.0,0.0
1574069792192364020,80,1574069792191955628,map,base_link,5.0890794757,-0.266527376462,-0.996,-0.00787661796634,-0.00363575091728,-0.234295686148,-0.972126674697,0.960400037384,0.0,0.0,0.0,0.0,0.0,0.0,0.960400037384,0.0,0.0,0.0,0.0,0.0,0.0,4.32639968262,0.0,0.0,0.0,0.0,0.0,0.0,99999.0,0.0,0.0,0.0,0.0,0.0,0.0,99999.0,0.0,0.0,0.0,0.0,0.0,0.0,99999.0,-0.02,-0.03,0.06,0.0,0.0,0.0,-1.0,0.0,0.0,0.0,0.0,0.0,0.0,0.0,0.0,0.0,0.0,0.0,0.0,0.0,0.0,0.0,0.0,0.0,0.0,0.0,0.0,0.0,0.0,0.0,0.0,0.0,0.0,0.0,0.0,0.0,0.0,0.0,0.0,0.0,0.0,0.0
1574069792430015736,81,1574069792429676806,map,base_link,5.11456739069,-0.322054255583,-0.993,-0.00794548163987,-0.0036479243209,-0.23429448426,-0.972126358358,0.960400037384,0.0,0.0,0.0,0.0,0.0,0.0,0.960400037384,0.0,0.0,0.0,0.0,0.0,0.0,4.32639968262,0.0,0.0,0.0,0.0,0.0,0.0,99999.0,0.0,0.0,0.0,0.0,0.0,0.0,99999.0,0.0,0.0,0.0,0.0,0.0,0.0,99999.0,-0.02,-0.04,0.06,0.0,0.0,0.0,-1.0,0.0,0.0,0.0,0.0,0.0,0.0,0.0,0.0,0.0,0.0,0.0,0.0,0.0,0.0,0.0,0.0,0.0,0.0,0.0,0.0,0.0,0.0,0.0,0.0,0.0,0.0,0.0,0.0,0.0,0.0,0.0,0.0,0.0,0.0,0.0
1574069792670731630,82,1574069792670266654,map,base_link,5.13155935483,-0.377581139269,-0.984,-0.00800572528969,-0.00369625721243,-0.234350321613,-0.972112222331,0.960400037384,0.0,0.0,0.0,0.0,0.0,0.0,0.960400037384,0.0,0.0,0.0,0.0,0.0,0.0,4.32639968262,0.0,0.0,0.0,0.0,0.0,0.0,99999.0,0.0,0.0,0.0,0.0,0.0,0.0,99999.0,0.0,0.0,0.0,0.0,0.0,0.0,99999.0,-0.02,-0.05,0.05,0.0,0.0,0.0,-1.0,0.0,0.0,0.0,0.0,0.0,0.0,0.0,0.0,0.0,0.0,0.0,0.0,0.0,0.0,0.0,0.0,0.0,0.0,0.0,0.0,0.0,0.0,0.0,0.0,0.0,0.0,0.0,0.0,0.0,0.0,0.0,0.0,0.0,0.0,0.0
1574069792908070059,83,1574069792907640418,map,base_link,5.15704727857,-0.433108018506,-0.978,-0.00808970757858,-0.00372429680689,-0.234308031591,-0.972121614088,0.960400037384,0.0,0.0,0.0,0.0,0.0,0.0,0.960400037384,0.0,0.0,0.0,0.0,0.0,0.0,6.8120994524,0.0,0.0,0.0,0.0,0.0,0.0,99999.0,0.0,0.0,0.0,0.0,0.0,0.0,99999.0,0.0,0.0,0.0,0.0,0.0,0.0,99999.0,-0.02,-0.05,0.05,0.0,0.0,0.0,-1.0,0.0,0.0,0.0,0.0,0.0,0.0,0.0,0.0,0.0,0.0,0.0,0.0,0.0,0.0,0.0,0.0,0.0,0.0,0.0,0.0,0.0,0.0,0.0,0.0,0.0,0.0,0.0,0.0,0.0,0.0,0.0,0.0,0.0,0.0,0.0
1574069793151732193,84,1574069793151320966,map,base_link,5.1740392353,-0.488634901982,-0.973,-0.00813311152656,-0.00369442043082,-0.234315435934,-0.972119581244,0.960400037384,0.0,0.0,0.0,0.0,0.0,0.0,0.960400037384,0.0,0.0,0.0,0.0,0.0,0.0,4.32639968262,0.0,0.0,0.0,0.0,0.0,0.0,99999.0,0.0,0.0,0.0,0.0,0.0,0.0,99999.0,0.0,0.0,0.0,0.0,0.0,0.0,99999.0,-0.02,-0.06,0.05,0.0,0.0,0.0,-1.0,0.0,0.0,0.0,0.0,0.0,0.0,0.0,0.0,0.0,0.0,0.0,0.0,0.0,0.0,0.0,0.0,0.0,0.0,0.0,0.0,0.0,0.0,0.0,0.0,0.0,0.0,0.0,0.0,0.0,0.0,0.0,0.0,0.0,0.0,0.0
1574069793390456872,85,1574069793390181189,map,base_link,5.19952713683,-0.510845643538,-0.964,-0.00811001742792,-0.00375135581999,-0.234292096242,-0.972125181541,0.960400037384,0.0,0.0,0.0,0.0,0.0,0.0,0.960400037384,0.0,0.0,0.0,0.0,0.0,0.0,4.32639968262,0.0,0.0,0.0,0.0,0.0,0.0,99999.0,0.0,0.0,0.0,0.0,0.0,0.0,99999.0,0.0,0.0,0.0,0.0,0.0,0.0,99999.0,-0.02,-0.06,0.05,0.0,0.0,0.0,-1.0,0.0,0.0,0.0,0.0,0.0,0.0,0.0,0.0,0.0,0.0,0.0,0.0,0.0,0.0,0.0,0.0,0.0,0.0,0.0,0.0,0.0,0.0,0.0,0.0,0.0,0.0,0.0,0.0,0.0,0.0,0.0,0.0,0.0,0.0,0.0
1574069793630456489,86,1574069793630179269,map,base_link,5.2335110135,-0.555267138168,-0.952,-0.00808366595217,-0.0038448327718,-0.234283941494,-0.97212700115,0.960400037384,0.0,0.0,0.0,0.0,0.0,0.0,0.960400037384,0.0,0.0,0.0,0.0,0.0,0.0,4.32639968262,0.0,0.0,0.0,0.0,0.0,0.0,99999.0,0.0,0.0,0.0,0.0,0.0,0.0,99999.0,0.0,0.0,0.0,0.0,0.0,0.0,99999.0,-0.01,-0.06,0.04,0.0,0.0,0.0,-1.0,0.0,0.0,0.0,0.0,0.0,0.0,0.0,0.0,0.0,0.0,0.0,0.0,0.0,0.0,0.0,0.0,0.0,0.0,0.0,0.0,0.0,0.0,0.0,0.0,0.0,0.0,0.0,0.0,0.0,0.0,0.0,0.0,0.0,0.0,0.0
1574069793911196313,87,1574069793910897648,map,base_link,5.25899898594,-0.666320914262,0.027,-0.00816495802619,-0.00388108706011,-0.234311678081,-0.972119492726,0.960400037384,0.0,0.0,0.0,0.0,0.0,0.0,0.960400037384,0.0,0.0,0.0,0.0,0.0,0.0,4.32639968262,0.0,0.0,0.0,0.0,0.0,0.0,99999.0,0.0,0.0,0.0,0.0,0.0,0.0,99999.0,0.0,0.0,0.0,0.0,0.0,0.0,99999.0,-0.01,-0.09,0.04,0.0,0.0,0.0,-1.0,0.0,0.0,0.0,0.0,0.0,0.0,0.0,0.0,0.0,0.0,0.0,0.0,0.0,0.0,0.0,0.0,0.0,0.0,0.0,0.0,0.0,0.0,0.0,0.0,0.0,0.0,0.0,0.0,0.0,0.0,0.0,0.0,0.0,0.0,0.0
1574069794212580142,88,1574069794212079920,map,base_link,5.29298291897,-0.777374685155,0.047,-0.00838500056766,-0.00384707158761,-0.234311191108,-0.972117872239,0.960400037384,0.0,0.0,0.0,0.0,0.0,0.0,0.960400037384,0.0,0.0,0.0,0.0,0.0,0.0,4.32639968262,0.0,0.0,0.0,0.0,0.0,0.0,99999.0,0.0,0.0,0.0,0.0,0.0,0.0,99999.0,0.0,0.0,0.0,0.0,0.0,0.0,99999.0,-0.01,-0.12,0.04,0.0,0.0,0.0,-1.0,0.0,0.0,0.0,0.0,0.0,0.0,0.0,0.0,0.0,0.0,0.0,0.0,0.0,0.0,0.0,0.0,0.0,0.0,0.0,0.0,0.0,0.0,0.0,0.0,0.0,0.0,0.0,0.0,0.0,0.0,0.0,0.0,0.0,0.0,0.0
1574069794523660287,89,1574069794523366130,map,base_link,5.32696682196,-0.844006938719,0.069,-0.00849732124295,-0.00382429922669,-0.234254974259,-0.972130535115,0.960400037384,0.0,0.0,0.0,0.0,0.0,0.0,0.960400037384,0.0,0.0,0.0,0.0,0.0,0.0,4.32639968262,0.0,0.0,0.0,0.0,0.0,0.0,99999.0,0.0,0.0,0.0,0.0,0.0,0.0,99999.0,0.0,0.0,0.0,0.0,0.0,0.0,99999.0,-0.01,-0.12,0.03,0.0,0.0,0.0,-1.0,0.0,0.0,0.0,0.0,0.0,0.0,0.0,0.0,0.0,0.0,0.0,0.0,0.0,0.0,0.0,0.0,0.0,0.0,0.0,0.0,0.0,0.0,0.0,0.0,0.0,0.0,0.0,0.0,0.0,0.0,0.0,0.0,0.0,0.0,0.0
1574069794793150532,90,1574069794792667954,map,base_link,5.36095069336,-0.877323054515,0.079,-0.00838761279655,-0.00386677440161,-0.234259013419,-0.972130346527,0.960400037384,0.0,0.0,0.0,0.0,0.0,0.0,0.960400037384,0.0,0.0,0.0,0.0,0.0,0.0,4.32639968262,0.0,0.0,0.0,0.0,0.0,0.0,99999.0,0.0,0.0,0.0,0.0,0.0,0.0,99999.0,0.0,0.0,0.0,0.0,0.0,0.0,99999.0,-0.01,-0.11,0.03,0.0,0.0,0.0,-1.0,0.0,0.0,0.0,0.0,0.0,0.0,0.0,0.0,0.0,0.0,0.0,0.0,0.0,0.0,0.0,0.0,0.0,0.0,0.0,0.0,0.0,0.0,0.0,0.0,0.0,0.0,0.0,0.0,0.0,0.0,0.0,0.0,0.0,0.0,0.0
1574069795072520535,91,1574069795072272256,map,base_link,5.40343051734,-0.899533784299,0.087,-0.00824044099266,-0.00393925290673,-0.234299279492,-0.972121610216,0.960400037384,0.0,0.0,0.0,0.0,0.0,0.0,0.960400037384,0.0,0.0,0.0,0.0,0.0,0.0,4.32639968262,0.0,0.0,0.0,0.0,0.0,0.0,99999.0,0.0,0.0,0.0,0.0,0.0,0.0,99999.0,0.0,0.0,0.0,0.0,0.0,0.0,99999.0,0.0,-0.09,0.03,0.0,0.0,0.0,-1.0,0.0,0.0,0.0,0.0,0.0,0.0,0.0,0.0,0.0,0.0,0.0,0.0,0.0,0.0,0.0,0.0,0.0,0.0,0.0,0.0,0.0,0.0,0.0,0.0,0.0,0.0,0.0,0.0,0.0,0.0,0.0,0.0,0.0,0.0,0.0
1574069795353185458,92,1574069795352943931,map,base_link,5.4544062935,-0.910639126881,0.097,-0.00806705025041,-0.00406808238623,-0.23433790474,-0.97211322376,0.960400037384,0.0,0.0,0.0,0.0,0.0,0.0,0.960400037384,0.0,0.0,0.0,0.0,0.0,0.0,4.32639968262,0.0,0.0,0.0,0.0,0.0,0.0,99999.0,0.0,0.0,0.0,0.0,0.0,0.0,99999.0,0.0,0.0,0.0,0.0,0.0,0.0,99999.0,0.0,-0.08,0.03,0.0,0.0,0.0,-1.0,0.0,0.0,0.0,0.0,0.0,0.0,0.0,0.0,0.0,0.0,0.0,0.0,0.0,0.0,0.0,0.0,0.0,0.0,0.0,0.0,0.0,0.0,0.0,0.0,0.0,0.0,0.0,0.0,0.0,0.0,0.0,0.0,0.0,0.0,0.0
1574069795674313014,93,1574069795673820453,map,base_link,5.49688614299,-0.955060617447,0.118,-0.00793514420745,-0.00412817096484,-0.234344465149,-0.972112474637,0.960400037384,0.0,0.0,0.0,0.0,0.0,0.0,0.960400037384,0.0,0.0,0.0,0.0,0.0,0.0,4.32639968262,0.0,0.0,0.0,0.0,0.0,0.0,99999.0,0.0,0.0,0.0,0.0,0.0,0.0,99999.0,0.0,0.0,0.0,0.0,0.0,0.0,99999.0,0.0,-0.08,0.02,0.0,0.0,0.0,-1.0,0.0,0.0,0.0,0.0,0.0,0.0,0.0,0.0,0.0,0.0,0.0,0.0,0.0,0.0,0.0,0.0,0.0,0.0,0.0,0.0,0.0,0.0,0.0,0.0,0.0,0.0,0.0,0.0,0.0,0.0,0.0,0.0,0.0,0.0,0.0
1574069795916520939,94,1574069795916183219,map,base_link,5.53936600914,-1.03279824399,0.129,-0.00798768196371,-0.00413352352784,-0.234398376508,-0.972099023768,0.960400037384,0.0,0.0,0.0,0.0,0.0,0.0,0.960400037384,0.0,0.0,0.0,0.0,0.0,0.0,4.32639968262,0.0,0.0,0.0,0.0,0.0,0.0,99999.0,0.0,0.0,0.0,0.0,0.0,0.0,99999.0,0.0,0.0,0.0,0.0,0.0,0.0,99999.0,0.0,-0.09,0.02,0.0,0.0,0.0,-1.0,0.0,0.0,0.0,0.0,0.0,0.0,0.0,0.0,0.0,0.0,0.0,0.0,0.0,0.0,0.0,0.0,0.0,0.0,0.0,0.0,0.0,0.0,0.0,0.0,0.0,0.0,0.0,0.0,0.0,0.0,0.0,0.0,0.0,0.0,0.0
1574069796200066540,95,1574069796199629048,map,base_link,5.58184586808,-1.09943048975,0.133,-0.00807631119516,-0.00409754759836,-0.234541683421,-0.972063877551,0.960400037384,0.0,0.0,0.0,0.0,0.0,0.0,0.960400037384,0.0,0.0,0.0,0.0,0.0,0.0,4.32639968262,0.0,0.0,0.0,0.0,0.0,0.0,99999.0,0.0,0.0,0.0,0.0,0.0,0.0,99999.0,0.0,0.0,0.0,0.0,0.0,0.0,99999.0,0.0,-0.1,0.02,0.0,0.0,0.0,-1.0,0.0,0.0,0.0,0.0,0.0,0.0,0.0,0.0,0.0,0.0,0.0,0.0,0.0,0.0,0.0,0.0,0.0,0.0,0.0,0.0,0.0,0.0,0.0,0.0,0.0,0.0,0.0,0.0,0.0,0.0,0.0,0.0,0.0,0.0,0.0
1574069796467185335,96,1574069796466865985,map,base_link,5.63282172142,-1.21048424815,0.145,-0.00821965153497,-0.00410197819542,-0.234523818229,-0.972066967748,0.960400037384,0.0,0.0,0.0,0.0,0.0,0.0,0.960400037384,0.0,0.0,0.0,0.0,0.0,0.0,4.32639968262,0.0,0.0,0.0,0.0,0.0,0.0,99999.0,0.0,0.0,0.0,0.0,0.0,0.0,99999.0,0.0,0.0,0.0,0.0,0.0,0.0,99999.0,0.01,-0.12,0.02,0.0,0.0,0.0,-1.0,0.0,0.0,0.0,0.0,0.0,0.0,0.0,0.0,0.0,0.0,0.0,0.0,0.0,0.0,0.0,0.0,0.0,0.0,0.0,0.0,0.0,0.0,0.0,0.0,0.0,0.0,0.0,0.0,0.0,0.0,0.0,0.0,0.0,0.0,0.0
1574069796753908628,97,1574069796753584102,map,base_link,5.69229357112,-1.35485414046,0.161,-0.00848567865496,-0.00409781294048,-0.234568054864,-0.972054025672,0.960400037384,0.0,0.0,0.0,0.0,0.0,0.0,0.960400037384,0.0,0.0,0.0,0.0,0.0,0.0,4.32639968262,0.0,0.0,0.0,0.0,0.0,0.0,99999.0,0.0,0.0,0.0,0.0,0.0,0.0,99999.0,0.0,0.0,0.0,0.0,0.0,0.0,99999.0,0.01,-0.15,0.01,0.0,0.0,0.0,-1.0,0.0,0.0,0.0,0.0,0.0,0.0,0.0,0.0,0.0,0.0,0.0,0.0,0.0,0.0,0.0,0.0,0.0,0.0,0.0,0.0,0.0,0.0,0.0,0.0,0.0,0.0,0.0,0.0,0.0,0.0,0.0,0.0,0.0,0.0,0.0
1574069797034658176,98,1574069797034202996,map,base_link,5.73477348445,-1.48811866388,0.171,-0.00866286144734,-0.00414453297768,-0.234649426552,-0.97203262512,0.960400037384,0.0,0.0,0.0,0.0,0.0,0.0,0.960400037384,0.0,0.0,0.0,0.0,0.0,0.0,4.32639968262,0.0,0.0,0.0,0.0,0.0,0.0,99999.0,0.0,0.0,0.0,0.0,0.0,0.0,99999.0,0.0,0.0,0.0,0.0,0.0,0.0,99999.0,0.02,-0.18,0.01,0.0,0.0,0.0,-1.0,0.0,0.0,0.0,0.0,0.0,0.0,0.0,0.0,0.0,0.0,0.0,0.0,0.0,0.0,0.0,0.0,0.0,0.0,0.0,0.0,0.0,0.0,0.0,0.0,0.0,0.0,0.0,0.0,0.0,0.0,0.0,0.0,0.0,0.0,0.0
1574069797339346508,99,1574069797339019615,map,base_link,5.76875745568,-1.64359395352,0.186,-0.00886091478134,-0.00407030620033,-0.234715097515,-0.972015298128,0.960400037384,0.0,0.0,0.0,0.0,0.0,0.0,0.960400037384,0.0,0.0,0.0,0.0,0.0,0.0,4.32639968262,0.0,0.0,0.0,0.0,0.0,0.0,99999.0,0.0,0.0,0.0,0.0,0.0,0.0,99999.0,0.0,0.0,0.0,0.0,0.0,0.0,99999.0,0.01,-0.21,0.01,0.0,0.0,0.0,-1.0,0.0,0.0,0.0,0.0,0.0,0.0,0.0,0.0,0.0,0.0,0.0,0.0,0.0,0.0,0.0,0.0,0.0,0.0,0.0,0.0,0.0,0.0,0.0,0.0,0.0,0.0,0.0,0.0,0.0,0.0,0.0,0.0,0.0,0.0,0.0
1574069797614372158,100,1574069797613904827,map,base_link,5.76026159793,-1.75464775969,0.204,-0.00881692820427,-0.00397786254477,-0.234753442839,-0.972006820687,0.960400037384,0.0,0.0,0.0,0.0,0.0,0.0,0.960400037384,0.0,0.0,0.0,0.0,0.0,0.0,4.32639968262,0.0,0.0,0.0,0.0,0.0,0.0,99999.0,0.0,0.0,0.0,0.0,0.0,0.0,99999.0,0.0,0.0,0.0,0.0,0.0,0.0,99999.0,0.0,-0.23,0.0,0.0,0.0,0.0,-1.0,0.0,0.0,0.0,0.0,0.0,0.0,0.0,0.0,0.0,0.0,0.0,0.0,0.0,0.0,0.0,0.0,0.0,0.0,0.0,0.0,0.0,0.0,0.0,0.0,0.0,0.0,0.0,0.0,0.0,0.0,0.0,0.0,0.0,0.0,0.0
1574069797883805179,101,1574069797883593833,map,base_link,5.78574956718,-1.85459615871,0.216,-0.00875536017927,-0.00387531475499,-0.234768729061,-0.972004099507,0.960400037384,0.0,0.0,0.0,0.0,0.0,0.0,0.960400037384,0.0,0.0,0.0,0.0,0.0,0.0,4.32639968262,0.0,0.0,0.0,0.0,0.0,0.0,99999.0,0.0,0.0,0.0,0.0,0.0,0.0,99999.0,0.0,0.0,0.0,0.0,0.0,0.0,99999.0,0.0,-0.23,0.0,0.0,0.0,0.0,-1.0,0.0,0.0,0.0,0.0,0.0,0.0,0.0,0.0,0.0,0.0,0.0,0.0,0.0,0.0,0.0,0.0,0.0,0.0,0.0,0.0,0.0,0.0,0.0,0.0,0.0,0.0,0.0,0.0,0.0,0.0,0.0,0.0,0.0,0.0,0.0
1574069798172893428,102,1574069798172407038,map,base_link,5.81973347196,-1.93233378827,0.218,-0.00866059265596,-0.00392433044367,-0.234847002443,-0.971985843111,0.960400037384,0.0,0.0,0.0,0.0,0.0,0.0,0.960400037384,0.0,0.0,0.0,0.0,0.0,0.0,4.32639968262,0.0,0.0,0.0,0.0,0.0,0.0,99999.0,0.0,0.0,0.0,0.0,0.0,0.0,99999.0,0.0,0.0,0.0,0.0,0.0,0.0,99999.0,0.0,-0.23,0.0,0.0,0.0,0.0,-1.0,0.0,0.0,0.0,0.0,0.0,0.0,0.0,0.0,0.0,0.0,0.0,0.0,0.0,0.0,0.0,0.0,0.0,0.0,0.0,0.0,0.0,0.0,0.0,0.0,0.0,0.0,0.0,0.0,0.0,0.0,0.0,0.0,0.0,0.0,0.0
1574069798434059602,103,1574069798433773910,map,base_link,5.87070930037,-2.01007140652,0.217,-0.00866059265596,-0.00392433044367,-0.234847002443,-0.971985843111,0.960400037384,0.0,0.0,0.0,0.0,0.0,0.0,0.960400037384,0.0,0.0,0.0,0.0,0.0,0.0,4.32639968262,0.0,0.0,0.0,0.0,0.0,0.0,99999.0,0.0,0.0,0.0,0.0,0.0,0.0,99999.0,0.0,0.0,0.0,0.0,0.0,0.0,99999.0,0.0,-0.23,0.0,0.0,0.0,0.0,-1.0,0.0,0.0,0.0,0.0,0.0,0.0,0.0,0.0,0.0,0.0,0.0,0.0,0.0,0.0,0.0,0.0,0.0,0.0,0.0,0.0,0.0,0.0,0.0,0.0,0.0,0.0,0.0,0.0,0.0,0.0,0.0,0.0,0.0,0.0,0.0
1574069798696975666,104,1574069798696569421,map,base_link,5.94717297018,-2.03228210584,0.217,-0.00860816875625,-0.00404082401923,-0.234969892689,-0.971956131058,0.960400037384,0.0,0.0,0.0,0.0,0.0,0.0,0.960400037384,0.0,0.0,0.0,0.0,0.0,0.0,4.32639968262,0.0,0.0,0.0,0.0,0.0,0.0,99999.0,0.0,0.0,0.0,0.0,0.0,0.0,99999.0,0.0,0.0,0.0,0.0,0.0,0.0,99999.0,0.02,-0.2,0.0,0.0,0.0,0.0,-1.0,0.0,0.0,0.0,0.0,0.0,0.0,0.0,0.0,0.0,0.0,0.0,0.0,0.0,0.0,0.0,0.0,0.0,0.0,0.0,0.0,0.0,0.0,0.0,0.0,0.0,0.0,0.0,0.0,0.0,0.0,0.0,0.0,0.0,0.0,0.0
1574069798995391439,105,1574069798995037164,map,base_link,6.03213262859,-2.08780893554,0.212,-0.00842046303949,-0.00423146703027,-0.235043377577,-0.971939196219,0.722500040531,0.0,0.0,0.0,0.0,0.0,0.0,0.722500040531,0.0,0.0,0.0,0.0,0.0,0.0,2.01639987812,0.0,0.0,0.0,0.0,0.0,0.0,99999.0,0.0,0.0,0.0,0.0,0.0,0.0,99999.0,0.0,0.0,0.0,0.0,0.0,0.0,99999.0,0.03,-0.19,0.01,0.0,0.0,0.0,-1.0,0.0,0.0,0.0,0.0,0.0,0.0,0.0,0.0,0.0,0.0,0.0,0.0,0.0,0.0,0.0,0.0,0.0,0.0,0.0,0.0,0.0,0.0,0.0,0.0,0.0,0.0,0.0,0.0,0.0,0.0,0.0,0.0,0.0,0.0,0.0
1574069799271617605,106,1574069799271450003,map,base_link,6.11709227018,-2.12112500411,0.21,-0.00825616599358,-0.00441202566608,-0.235179817924,-0.971906797483,0.722500040531,0.0,0.0,0.0,0.0,0.0,0.0,0.722500040531,0.0,0.0,0.0,0.0,0.0,0.0,2.01639987812,0.0,0.0,0.0,0.0,0.0,0.0,99999.0,0.0,0.0,0.0,0.0,0.0,0.0,99999.0,0.0,0.0,0.0,0.0,0.0,0.0,99999.0,0.05,-0.18,0.01,0.0,0.0,0.0,-1.0,0.0,0.0,0.0,0.0,0.0,0.0,0.0,0.0,0.0,0.0,0.0,0.0,0.0,0.0,0.0,0.0,0.0,0.0,0.0,0.0,0.0,0.0,0.0,0.0,0.0,0.0,0.0,0.0,0.0,0.0,0.0,0.0,0.0,0.0,0.0
1574069799557415911,107,1574069799556982200,map,base_link,6.1935559321,-2.14333569777,0.206,-0.0081703927239,-0.00457323554892,-0.235230739316,-0.971894453879,0.722500040531,0.0,0.0,0.0,0.0,0.0,0.0,0.722500040531,0.0,0.0,0.0,0.0,0.0,0.0,2.01639987812,0.0,0.0,0.0,0.0,0.0,0.0,99999.0,0.0,0.0,0.0,0.0,0.0,0.0,99999.0,0.0,0.0,0.0,0.0,0.0,0.0,99999.0,0.06,-0.16,0.01,0.0,0.0,0.0,-1.0,0.0,0.0,0.0,0.0,0.0,0.0,0.0,0.0,0.0,0.0,0.0,0.0,0.0,0.0,0.0,0.0,0.0,0.0,0.0,0.0,0.0,0.0,0.0,0.0,0.0,0.0,0.0,0.0,0.0,0.0,0.0,0.0,0.0,0.0,0.0
1574069799833430101,108,1574069799833279191,map,base_link,6.27001957588,-2.14333563097,0.196,-0.00798797470978,-0.00461803117659,-0.23532988402,-0.971871756836,0.722500040531,0.0,0.0,0.0,0.0,0.0,0.0,0.722500040531,0.0,0.0,0.0,0.0,0.0,0.0,2.01639987812,0.0,0.0,0.0,0.0,0.0,0.0,99999.0,0.0,0.0,0.0,0.0,0.0,0.0,99999.0,0.0,0.0,0.0,0.0,0.0,0.0,99999.0,0.07,-0.13,0.01,0.0,0.0,0.0,-1.0,0.0,0.0,0.0,0.0,0.0,0.0,0.0,0.0,0.0,0.0,0.0,0.0,0.0,0.0,0.0,0.0,0.0,0.0,0.0,0.0,0.0,0.0,0.0,0.0,0.0,0.0,0.0,0.0,0.0,0.0,0.0,0.0,0.0,0.0,0.0
1574069800126741112,109,1574069800126246691,map,base_link,6.32949129633,-2.14333557775,0.182,-0.0078335845129,-0.00446332993932,-0.235476655408,-0.971838185295,0.722500040531,0.0,0.0,0.0,0.0,0.0,0.0,0.722500040531,0.0,0.0,0.0,0.0,0.0,0.0,2.01639987812,0.0,0.0,0.0,0.0,0.0,0.0,99999.0,0.0,0.0,0.0,0.0,0.0,0.0,99999.0,0.0,0.0,0.0,0.0,0.0,0.0,99999.0,0.08,-0.1,0.02,0.0,0.0,0.0,-1.0,0.0,0.0,0.0,0.0,0.0,0.0,0.0,0.0,0.0,0.0,0.0,0.0,0.0,0.0,0.0,0.0,0.0,0.0,0.0,0.0,0.0,0.0,0.0,0.0,0.0,0.0,0.0,0.0,0.0,0.0,0.0,0.0,0.0,0.0,0.0
1574069800430644584,110,1574069800430388669,map,base_link,6.43144282331,-2.15444086458,0.169,-0.00723053304562,-0.00648044408705,-0.235594279321,-0.971802993815,0.722500040531,0.0,0.0,0.0,0.0,0.0,0.0,0.722500040531,0.0,0.0,0.0,0.0,0.0,0.0,2.01639987812,0.0,0.0,0.0,0.0,0.0,0.0,99999.0,0.0,0.0,0.0,0.0,0.0,0.0,99999.0,0.0,0.0,0.0,0.0,0.0,0.0,99999.0,0.09,-0.09,0.02,0.0,0.0,0.0,-1.0,0.0,0.0,0.0,0.0,0.0,0.0,0.0,0.0,0.0,0.0,0.0,0.0,0.0,0.0,0.0,0.0,0.0,0.0,0.0,0.0,0.0,0.0,0.0,0.0,0.0,0.0,0.0,0.0,0.0,0.0,0.0,0.0,0.0,0.0,0.0
1574069800696088980,111,1574069800695583680,map,base_link,6.54189033191,-2.16554614866,0.167,-0.00738295566395,-0.00539757728895,-0.235701508935,-0.971782463729,0.722500040531,0.0,0.0,0.0,0.0,0.0,0.0,0.722500040531,0.0,0.0,0.0,0.0,0.0,0.0,2.01639987812,0.0,0.0,0.0,0.0,0.0,0.0,99999.0,0.0,0.0,0.0,0.0,0.0,0.0,99999.0,0.0,0.0,0.0,0.0,0.0,0.0,99999.0,0.12,-0.08,0.02,0.0,0.0,0.0,-1.0,0.0,0.0,0.0,0.0,0.0,0.0,0.0,0.0,0.0,0.0,0.0,0.0,0.0,0.0,0.0,0.0,0.0,0.0,0.0,0.0,0.0,0.0,0.0,0.0,0.0,0.0,0.0,0.0,0.0,0.0,0.0,0.0,0.0,0.0,0.0
1574069800972601742,112,1574069800972102529,map,base_link,6.64384188914,-2.18775681689,0.161,-0.00748802908976,-0.00463270506069,-0.235464633318,-0.971843029465,0.722500040531,0.0,0.0,0.0,0.0,0.0,0.0,0.722500040531,0.0,0.0,0.0,0.0,0.0,0.0,2.01639987812,0.0,0.0,0.0,0.0,0.0,0.0,99999.0,0.0,0.0,0.0,0.0,0.0,0.0,99999.0,0.0,0.0,0.0,0.0,0.0,0.0,99999.0,0.13,-0.07,0.02,0.0,0.0,0.0,-1.0,0.0,0.0,0.0,0.0,0.0,0.0,0.0,0.0,0.0,0.0,0.0,0.0,0.0,0.0,0.0,0.0,0.0,0.0,0.0,0.0,0.0,0.0,0.0,0.0,0.0,0.0,0.0,0.0,0.0,0.0,0.0,0.0,0.0,0.0,0.0
1574069801279318994,113,1574069801279173997,map,base_link,6.71180958061,-2.19886213413,0.157,-0.00775700069821,-0.00330421623025,-0.235321511273,-0.971881009912,0.722500040531,0.0,0.0,0.0,0.0,0.0,0.0,0.722500040531,0.0,0.0,0.0,0.0,0.0,0.0,2.01639987812,0.0,0.0,0.0,0.0,0.0,0.0,99999.0,0.0,0.0,0.0,0.0,0.0,0.0,99999.0,0.0,0.0,0.0,0.0,0.0,0.0,99999.0,0.13,-0.05,0.03,0.0,0.0,0.0,-1.0,0.0,0.0,0.0,0.0,0.0,0.0,0.0,0.0,0.0,0.0,0.0,0.0,0.0,0.0,0.0,0.0,0.0,0.0,0.0,0.0,0.0,0.0,0.0,0.0,0.0,0.0,0.0,0.0,0.0,0.0,0.0,0.0,0.0,0.0,0.0
1574069801548711590,114,1574069801548252742,map,base_link,6.76278539009,-2.23217823031,0.162,-0.00754536638174,-0.00364996128693,-0.235185979283,-0.971914245383,0.722500040531,0.0,0.0,0.0,0.0,0.0,0.0,0.722500040531,0.0,0.0,0.0,0.0,0.0,0.0,2.01639987812,0.0,0.0,0.0,0.0,0.0,0.0,99999.0,0.0,0.0,0.0,0.0,0.0,0.0,99999.0,0.0,0.0,0.0,0.0,0.0,0.0,99999.0,0.13,-0.05,0.02,0.0,0.0,0.0,-1.0,0.0,0.0,0.0,0.0,0.0,0.0,0.0,0.0,0.0,0.0,0.0,0.0,0.0,0.0,0.0,0.0,0.0,0.0,0.0,0.0,0.0,0.0,0.0,0.0,0.0,0.0,0.0,0.0,0.0,0.0,0.0,0.0,0.0,0.0,0.0
1574069801832255919,115,1574069801831952131,map,base_link,6.80526522856,-2.25438895361,0.17,-0.00729700413177,-0.00441727481496,-0.235295705759,-0.971886398848,0.722500040531,0.0,0.0,0.0,0.0,0.0,0.0,0.722500040531,0.0,0.0,0.0,0.0,0.0,0.0,2.01639987812,0.0,0.0,0.0,0.0,0.0,0.0,99999.0,0.0,0.0,0.0,0.0,0.0,0.0,99999.0,0.0,0.0,0.0,0.0,0.0,0.0,99999.0,0.13,-0.04,0.02,0.0,0.0,0.0,-1.0,0.0,0.0,0.0,0.0,0.0,0.0,0.0,0.0,0.0,0.0,0.0,0.0,0.0,0.0,0.0,0.0,0.0,0.0,0.0,0.0,0.0,0.0,0.0,0.0,0.0,0.0,0.0,0.0,0.0,0.0,0.0,0.0,0.0,0.0,0.0
1574069802133160855,116,1574069802132691955,map,base_link,6.87323294152,-2.27659965022,0.177,-0.00640620720717,-0.00862619536697,-0.235091916041,-0.971913751459,0.774399991608,0.0,0.0,0.0,0.0,0.0,0.0,0.774399991608,0.0,0.0,0.0,0.0,0.0,0.0,2.01639987812,0.0,0.0,0.0,0.0,0.0,0.0,99999.0,0.0,0.0,0.0,0.0,0.0,0.0,99999.0,0.0,0.0,0.0,0.0,0.0,0.0,99999.0,0.13,-0.04,0.02,0.0,0.0,0.0,-1.0,0.0,0.0,0.0,0.0,0.0,0.0,0.0,0.0,0.0,0.0,0.0,0.0,0.0,0.0,0.0,0.0,0.0,0.0,0.0,0.0,0.0,0.0,0.0,0.0,0.0,0.0,0.0,0.0,0.0,0.0,0.0,0.0,0.0,0.0,0.0
1574069802411651864,117,1574069802411333107,map,base_link,6.91571276039,-2.27659961564,0.185,-0.00626771766078,-0.0081829010016,-0.234293348008,-0.972111301717,0.722500040531,0.0,0.0,0.0,0.0,0.0,0.0,0.722500040531,0.0,0.0,0.0,0.0,0.0,0.0,2.01639987812,0.0,0.0,0.0,0.0,0.0,0.0,99999.0,0.0,0.0,0.0,0.0,0.0,0.0,99999.0,0.0,0.0,0.0,0.0,0.0,0.0,99999.0,0.12,-0.03,0.02,0.0,0.0,0.0,-1.0,0.0,0.0,0.0,0.0,0.0,0.0,0.0,0.0,0.0,0.0,0.0,0.0,0.0,0.0,0.0,0.0,0.0,0.0,0.0,0.0,0.0,0.0,0.0,0.0,0.0,0.0,0.0,0.0,0.0,0.0,0.0,0.0,0.0,0.0,0.0
1574069802687325371,118,1574069802686854050,map,base_link,6.96668852048,-2.25438881296,0.192,-0.00606674699867,-0.00882763160455,-0.234577059018,-0.972038513066,0.722500040531,0.0,0.0,0.0,0.0,0.0,0.0,0.722500040531,0.0,0.0,0.0,0.0,0.0,0.0,2.01639987812,0.0,0.0,0.0,0.0,0.0,0.0,99999.0,0.0,0.0,0.0,0.0,0.0,0.0,99999.0,0.0,0.0,0.0,0.0,0.0,0.0,99999.0,0.11,-0.01,0.02,0.0,0.0,0.0,-1.0,0.0,0.0,0.0,0.0,0.0,0.0,0.0,0.0,0.0,0.0,0.0,0.0,0.0,0.0,0.0,0.0,0.0,0.0,0.0,0.0,0.0,0.0,0.0,0.0,0.0,0.0,0.0,0.0,0.0,0.0,0.0,0.0,0.0,0.0,0.0
1574069802972009763,119,1574069802971616155,map,base_link,6.9921763846,-2.23217803055,0.196,-0.00609945919659,-0.00782076546417,-0.234535701739,-0.972056910286,0.722500040531,0.0,0.0,0.0,0.0,0.0,0.0,0.722500040531,0.0,0.0,0.0,0.0,0.0,0.0,2.01639987812,0.0,0.0,0.0,0.0,0.0,0.0,99999.0,0.0,0.0,0.0,0.0,0.0,0.0,99999.0,0.0,0.0,0.0,0.0,0.0,0.0,99999.0,0.11,0.0,0.02,0.0,0.0,0.0,-1.0,0.0,0.0,0.0,0.0,0.0,0.0,0.0,0.0,0.0,0.0,0.0,0.0,0.0,0.0,0.0,0.0,0.0,0.0,0.0,0.0,0.0,0.0,0.0,0.0,0.0,0.0,0.0,0.0,0.0,0.0,0.0,0.0,0.0,0.0,0.0
1574069803227671856,120,1574069803227184983,map,base_link,7.00067230424,-2.19886188088,0.189,-0.00591697391761,-0.00790394286434,-0.235076152337,-0.971926807794,0.722500040531,0.0,0.0,0.0,0.0,0.0,0.0,0.722500040531,0.0,0.0,0.0,0.0,0.0,0.0,2.01639987812,0.0,0.0,0.0,0.0,0.0,0.0,99999.0,0.0,0.0,0.0,0.0,0.0,0.0,99999.0,0.0,0.0,0.0,0.0,0.0,0.0,99999.0,0.09,0.01,0.02,0.0,0.0,0.0,-1.0,0.0,0.0,0.0,0.0,0.0,0.0,0.0,0.0,0.0,0.0,0.0,0.0,0.0,0.0,0.0,0.0,0.0,0.0,0.0,0.0,0.0,0.0,0.0,0.0,0.0,0.0,0.0,0.0,0.0,0.0,0.0,0.0,0.0,0.0,0.0
1574069803508964279,121,1574069803508512649,map,base_link,6.99217632197,-2.17665113021,0.185,-0.00550313922877,-0.00806869710608,-0.235202170979,-0.971897397029,0.722500040531,0.0,0.0,0.0,0.0,0.0,0.0,0.722500040531,0.0,0.0,0.0,0.0,0.0,0.0,2.01639987812,0.0,0.0,0.0,0.0,0.0,0.0,99999.0,0.0,0.0,0.0,0.0,0.0,0.0,99999.0,0.0,0.0,0.0,0.0,0.0,0.0,99999.0,0.06,0.02,0.03,0.0,0.0,0.0,-1.0,0.0,0.0,0.0,0.0,0.0,0.0,0.0,0.0,0.0,0.0,0.0,0.0,0.0,0.0,0.0,0.0,0.0,0.0,0.0,0.0,0.0,0.0,0.0,0.0,0.0,0.0,0.0,0.0,0.0,0.0,0.0,0.0,0.0,0.0,0.0
1574069803832231934,122,1574069803832006513,map,base_link,7.0091682134,-2.15444035171,0.171,-0.00580709052264,-0.00669650920228,-0.235010319318,-0.971952459886,0.722500040531,0.0,0.0,0.0,0.0,0.0,0.0,0.722500040531,0.0,0.0,0.0,0.0,0.0,0.0,2.01639987812,0.0,0.0,0.0,0.0,0.0,0.0,99999.0,0.0,0.0,0.0,0.0,0.0,0.0,99999.0,0.0,0.0,0.0,0.0,0.0,0.0,99999.0,0.06,0.03,0.03,0.0,0.0,0.0,-1.0,0.0,0.0,0.0,0.0,0.0,0.0,0.0,0.0,0.0,0.0,0.0,0.0,0.0,0.0,0.0,0.0,0.0,0.0,0.0,0.0,0.0,0.0,0.0,0.0,0.0,0.0,0.0,0.0,0.0,0.0,0.0,0.0,0.0,0.0,0.0
1574069804106943656,123,1574069804106531217,map,base_link,7.0771358516,-2.12112414154,0.155,-0.00577436108685,-0.00755526764448,-0.235082262431,-0.971928960663,0.722500040531,0.0,0.0,0.0,0.0,0.0,0.0,0.722500040531,0.0,0.0,0.0,0.0,0.0,0.0,2.01639987812,0.0,0.0,0.0,0.0,0.0,0.0,99999.0,0.0,0.0,0.0,0.0,0.0,0.0,99999.0,0.0,0.0,0.0,0.0,0.0,0.0,99999.0,0.06,0.05,0.04,0.0,0.0,0.0,-1.0,0.0,0.0,0.0,0.0,0.0,0.0,0.0,0.0,0.0,0.0,0.0,0.0,0.0,0.0,0.0,0.0,0.0,0.0,0.0,0.0,0.0,0.0,0.0,0.0,0.0,0.0,0.0,0.0,0.0,0.0,0.0,0.0,0.0,0.0,0.0
1574069804386205834,124,1574069804385873452,map,base_link,7.10262370372,-2.09891335603,0.146,-0.00589643748489,-0.00891169218152,-0.235730081454,-0.971759817272,0.722500040531,0.0,0.0,0.0,0.0,0.0,0.0,0.722500040531,0.0,0.0,0.0,0.0,0.0,0.0,2.01639987812,0.0,0.0,0.0,0.0,0.0,0.0,99999.0,0.0,0.0,0.0,0.0,0.0,0.0,99999.0,0.0,0.0,0.0,0.0,0.0,0.0,99999.0,0.05,0.05,0.03,0.0,0.0,0.0,-1.0,0.0,0.0,0.0,0.0,0.0,0.0,0.0,0.0,0.0,0.0,0.0,0.0,0.0,0.0,0.0,0.0,0.0,0.0,0.0,0.0,0.0,0.0,0.0,0.0,0.0,0.0,0.0,0.0,0.0,0.0,0.0,0.0,0.0,0.0,0.0
1574069804648335866,125,1574069804647845629,map,base_link,7.0941277534,-2.09891336739,0.153,-0.0061245597249,-0.00860655103869,-0.235574901442,-0.971798787228,0.722500040531,0.0,0.0,0.0,0.0,0.0,0.0,0.722500040531,0.0,0.0,0.0,0.0,0.0,0.0,2.01639987812,0.0,0.0,0.0,0.0,0.0,0.0,99999.0,0.0,0.0,0.0,0.0,0.0,0.0,99999.0,0.0,0.0,0.0,0.0,0.0,0.0,99999.0,0.04,0.05,0.03,0.0,0.0,0.0,-1.0,0.0,0.0,0.0,0.0,0.0,0.0,0.0,0.0,0.0,0.0,0.0,0.0,0.0,0.0,0.0,0.0,0.0,0.0,0.0,0.0,0.0,0.0,0.0,0.0,0.0,0.0,0.0,0.0,0.0,0.0,0.0,0.0,0.0,0.0,0.0
1574069804932089347,126,1574069804931889273,map,base_link,7.11961564814,-2.1100187235,0.151,-0.00673175470366,-0.00801501526684,-0.236667482263,-0.971534325615,0.722500040531,0.0,0.0,0.0,0.0,0.0,0.0,0.722500040531,0.0,0.0,0.0,0.0,0.0,0.0,2.01639987812,0.0,0.0,0.0,0.0,0.0,0.0,99999.0,0.0,0.0,0.0,0.0,0.0,0.0,99999.0,0.0,0.0,0.0,0.0,0.0,0.0,99999.0,0.03,0.05,0.03,0.0,0.0,0.0,-1.0,0.0,0.0,0.0,0.0,0.0,0.0,0.0,0.0,0.0,0.0,0.0,0.0,0.0,0.0,0.0,0.0,0.0,0.0,0.0,0.0,0.0,0.0,0.0,0.0,0.0,0.0,0.0,0.0,0.0,0.0,0.0,0.0,0.0,0.0,0.0
1574069805190838466,127,1574069805190367542,map,base_link,7.14510352177,-2.09891331956,0.151,-0.0066178505604,-0.00899101002759,-0.236387519772,-0.971594723271,0.722500040531,0.0,0.0,0.0,0.0,0.0,0.0,0.722500040531,0.0,0.0,0.0,0.0,0.0,0.0,2.01639987812,0.0,0.0,0.0,0.0,0.0,0.0,99999.0,0.0,0.0,0.0,0.0,0.0,0.0,99999.0,0.0,0.0,0.0,0.0,0.0,0.0,99999.0,0.03,0.05,0.03,0.0,0.0,0.0,-1.0,0.0,0.0,0.0,0.0,0.0,0.0,0.0,0.0,0.0,0.0,0.0,0.0,0.0,0.0,0.0,0.0,0.0,0.0,0.0,0.0,0.0,0.0,0.0,0.0,0.0,0.0,0.0,0.0,0.0,0.0,0.0,0.0,0.0,0.0,0.0
1574069805481845641,128,1574069805481420959,map,base_link,7.18758330751,-2.07670251952,0.151,-0.00710323858945,-0.00890292836062,-0.236709774306,-0.97151364613,0.722500040531,0.0,0.0,0.0,0.0,0.0,0.0,0.722500040531,0.0,0.0,0.0,0.0,0.0,0.0,2.01639987812,0.0,0.0,0.0,0.0,0.0,0.0,99999.0,0.0,0.0,0.0,0.0,0.0,0.0,99999.0,0.0,0.0,0.0,0.0,0.0,0.0,99999.0,0.02,0.06,0.03,0.0,0.0,0.0,-1.0,0.0,0.0,0.0,0.0,0.0,0.0,0.0,0.0,0.0,0.0,0.0,0.0,0.0,0.0,0.0,0.0,0.0,0.0,0.0,0.0,0.0,0.0,0.0,0.0,0.0,0.0,0.0,0.0,0.0,0.0,0.0,0.0,0.0,0.0,0.0
1574069805745772155,129,1574069805745529467,map,base_link,7.264046894,-2.03228092337,0.139,-0.00671225297086,-0.00743441634533,-0.236773043685,-0.971513356006,0.722500040531,0.0,0.0,0.0,0.0,0.0,0.0,0.722500040531,0.0,0.0,0.0,0.0,0.0,0.0,2.01639987812,0.0,0.0,0.0,0.0,0.0,0.0,99999.0,0.0,0.0,0.0,0.0,0.0,0.0,99999.0,0.0,0.0,0.0,0.0,0.0,0.0,99999.0,0.02,0.1,0.02,0.0,0.0,0.0,-1.0,0.0,0.0,0.0,0.0,0.0,0.0,0.0,0.0,0.0,0.0,0.0,0.0,0.0,0.0,0.0,0.0,0.0,0.0,0.0,0.0,0.0,0.0,0.0,0.0,0.0,0.0,0.0,0.0,0.0,0.0,0.0,0.0,0.0,0.0,0.0
1574069806032457731,130,1574069806032039605,map,base_link,7.34900644234,-1.95454318787,0.142,-0.000415564429263,-0.0225683803407,-0.228243198825,-0.973342456541,0.722500040531,0.0,0.0,0.0,0.0,0.0,0.0,0.722500040531,0.0,0.0,0.0,0.0,0.0,0.0,2.01639987812,0.0,0.0,0.0,0.0,0.0,0.0,99999.0,0.0,0.0,0.0,0.0,0.0,0.0,99999.0,0.0,0.0,0.0,0.0,0.0,0.0,99999.0,0.06,0.09,-0.09,0.0,0.0,0.0,-1.0,0.0,0.0,0.0,0.0,0.0,0.0,0.0,0.0,0.0,0.0,0.0,0.0,0.0,0.0,0.0,0.0,0.0,0.0,0.0,0.0,0.0,0.0,0.0,0.0,0.0,0.0,0.0,0.0,0.0,0.0,0.0,0.0,0.0,0.0,0.0
1574069806347448536,131,1574069806347252311,map,base_link,7.45945388424,-1.87680542833,0.161,-0.00867545386127,-0.000239199076288,-0.21668628344,-0.976202711455,0.722500040531,0.0,0.0,0.0,0.0,0.0,0.0,0.722500040531,0.0,0.0,0.0,0.0,0.0,0.0,2.01639987812,0.0,0.0,0.0,0.0,0.0,0.0,99999.0,0.0,0.0,0.0,0.0,0.0,0.0,99999.0,0.0,0.0,0.0,0.0,0.0,0.0,99999.0,0.04,0.1,-0.1,0.0,0.0,0.0,-1.0,0.0,0.0,0.0,0.0,0.0,0.0,0.0,0.0,0.0,0.0,0.0,0.0,0.0,0.0,0.0,0.0,0.0,0.0,0.0,0.0,0.0,0.0,0.0,0.0,0.0,0.0,0.0,0.0,0.0,0.0,0.0,0.0,0.0,0.0,0.0
1574069806616276979,132,1574069806615868176,map,base_link,7.54441351004,-1.83238383969,0.211,-0.0023350281109,-0.000506116273326,-0.216192741563,-0.976347781267,0.722500040531,0.0,0.0,0.0,0.0,0.0,0.0,0.722500040531,0.0,0.0,0.0,0.0,0.0,0.0,2.01639987812,0.0,0.0,0.0,0.0,0.0,0.0,99999.0,0.0,0.0,0.0,0.0,0.0,0.0,99999.0,0.0,0.0,0.0,0.0,0.0,0.0,99999.0,0.09,0.12,-0.2,0.0,0.0,0.0,-1.0,0.0,0.0,0.0,0.0,0.0,0.0,0.0,0.0,0.0,0.0,0.0,0.0,0.0,0.0,0.0,0.0,0.0,0.0,0.0,0.0,0.0,0.0,0.0,0.0,0.0,0.0,0.0,0.0,0.0,0.0,0.0,0.0,0.0,0.0,0.0
1574069806905121475,133,1574069806904942278,map,base_link,7.56990147587,-1.84348921222,0.27,-0.00195619016172,-0.00313568650636,-0.21628155972,-0.976324038276,0.722500040531,0.0,0.0,0.0,0.0,0.0,0.0,0.722500040531,0.0,0.0,0.0,0.0,0.0,0.0,2.01639987812,0.0,0.0,0.0,0.0,0.0,0.0,99999.0,0.0,0.0,0.0,0.0,0.0,0.0,99999.0,0.0,0.0,0.0,0.0,0.0,0.0,99999.0,0.08,0.11,-0.17,0.0,0.0,0.0,-1.0,0.0,0.0,0.0,0.0,0.0,0.0,0.0,0.0,0.0,0.0,0.0,0.0,0.0,0.0,0.0,0.0,0.0,0.0,0.0,0.0,0.0,0.0,0.0,0.0,0.0,0.0,0.0,0.0,0.0,0.0,0.0,0.0,0.0,0.0,0.0
1574069807206533389,134,1574069807206177879,map,base_link,7.49343799398,-1.95454310085,0.324,-0.00433311394222,-0.00379123171675,-0.213430078822,-0.976941375999,0.722500040531,0.0,0.0,0.0,0.0,0.0,0.0,0.722500040531,0.0,0.0,0.0,0.0,0.0,0.0,2.01639987812,0.0,0.0,0.0,0.0,0.0,0.0,99999.0,0.0,0.0,0.0,0.0,0.0,0.0,99999.0,0.0,0.0,0.0,0.0,0.0,0.0,99999.0,0.0,0.05,-0.18,0.0,0.0,0.0,-1.0,0.0,0.0,0.0,0.0,0.0,0.0,0.0,0.0,0.0,0.0,0.0,0.0,0.0,0.0,0.0,0.0,0.0,0.0,0.0,0.0,0.0,0.0,0.0,0.0,0.0,0.0,0.0,0.0,0.0,0.0,0.0,0.0,0.0,0.0,0.0
1574069807490229025,135,1574069807489975902,map,base_link,7.44246233918,-1.99896468864,0.389,-0.00433311394222,-0.00379123171675,-0.213430078822,-0.976941375999,0.722500040531,0.0,0.0,0.0,0.0,0.0,0.0,0.722500040531,0.0,0.0,0.0,0.0,0.0,0.0,2.01639987812,0.0,0.0,0.0,0.0,0.0,0.0,99999.0,0.0,0.0,0.0,0.0,0.0,0.0,99999.0,0.0,0.0,0.0,0.0,0.0,0.0,99999.0,-0.03,0.05,-0.22,0.0,0.0,0.0,-1.0,0.0,0.0,0.0,0.0,0.0,0.0,0.0,0.0,0.0,0.0,0.0,0.0,0.0,0.0,0.0,0.0,0.0,0.0,0.0,0.0,0.0,0.0,0.0,0.0,0.0,0.0,0.0,0.0,0.0,0.0,0.0,0.0,0.0,0.0,0.0
1574069807745732814,136,1574069807745586196,map,base_link,7.39998263428,-2.02117551331,0.45,0.00249119029115,-0.00268433278608,-0.217615967559,-0.976027601552,0.792099974537,0.0,0.0,0.0,0.0,0.0,0.0,0.792099974537,0.0,0.0,0.0,0.0,0.0,0.0,2.01639987812,0.0,0.0,0.0,0.0,0.0,0.0,99999.0,0.0,0.0,0.0,0.0,0.0,0.0,99999.0,0.0,0.0,0.0,0.0,0.0,0.0,99999.0,-0.06,0.04,-0.19,0.0,0.0,0.0,-1.0,0.0,0.0,0.0,0.0,0.0,0.0,0.0,0.0,0.0,0.0,0.0,0.0,0.0,0.0,0.0,0.0,0.0,0.0,0.0,0.0,0.0,0.0,0.0,0.0,0.0,0.0,0.0,0.0,0.0,0.0,0.0,0.0,0.0,0.0,0.0
1574069808026477300,137,1574069808026025009,map,base_link,7.37449481778,-2.03228093367,0.507,0.000795174595476,0.00204736141789,-0.21681060168,-0.976211216391,0.792099974537,0.0,0.0,0.0,0.0,0.0,0.0,0.792099974537,0.0,0.0,0.0,0.0,0.0,0.0,2.01639987812,0.0,0.0,0.0,0.0,0.0,0.0,99999.0,0.0,0.0,0.0,0.0,0.0,0.0,99999.0,0.0,0.0,0.0,0.0,0.0,0.0,99999.0,-0.07,0.0,-0.19,0.0,0.0,0.0,-1.0,0.0,0.0,0.0,0.0,0.0,0.0,0.0,0.0,0.0,0.0,0.0,0.0,0.0,0.0,0.0,0.0,0.0,0.0,0.0,0.0,0.0,0.0,0.0,0.0,0.0,0.0,0.0,0.0,0.0,0.0,0.0,0.0,0.0,0.0,0.0
1574069808312418380,138,1574069808312139810,map,base_link,7.3999827269,-2.02117553828,0.533,7.10764097557e-06,0.00767599386885,-0.212299931409,-0.977174405207,0.722500040531,0.0,0.0,0.0,0.0,0.0,0.0,0.722500040531,0.0,0.0,0.0,0.0,0.0,0.0,2.01639987812,0.0,0.0,0.0,0.0,0.0,0.0,99999.0,0.0,0.0,0.0,0.0,0.0,0.0,99999.0,0.0,0.0,0.0,0.0,0.0,0.0,99999.0,-0.05,0.0,-0.11,0.0,0.0,0.0,-1.0,0.0,0.0,0.0,0.0,0.0,0.0,0.0,0.0,0.0,0.0,0.0,0.0,0.0,0.0,0.0,0.0,0.0,0.0,0.0,0.0,0.0,0.0,0.0,0.0,0.0,0.0,0.0,0.0,0.0,0.0,0.0,0.0,0.0,0.0,0.0
1574069808632608787,139,1574069808632191494,map,base_link,7.49343828465,-1.99896468521,0.536,-0.00298468246807,0.0138648894747,-0.190941299098,-0.981498994808,0.722500040531,0.0,0.0,0.0,0.0,0.0,0.0,0.722500040531,0.0,0.0,0.0,0.0,0.0,0.0,2.01639987812,0.0,0.0,0.0,0.0,0.0,0.0,99999.0,0.0,0.0,0.0,0.0,0.0,0.0,99999.0,0.0,0.0,0.0,0.0,0.0,0.0,99999.0,-0.03,0.0,-0.02,0.0,0.0,0.0,-1.0,0.0,0.0,0.0,0.0,0.0,0.0,0.0,0.0,0.0,0.0,0.0,0.0,0.0,0.0,0.0,0.0,0.0,0.0,0.0,0.0,0.0,0.0,0.0,0.0,0.0,0.0,0.0,0.0,0.0,0.0,0.0,0.0,0.0,0.0,0.0
1574069808872122425,140,1574069808871890324,map,base_link,7.56990191822,-1.97675384888,0.538,-0.00463672204223,0.0112583239413,-0.153434960862,-0.98808373316,0.722500040531,0.0,0.0,0.0,0.0,0.0,0.0,0.722500040531,0.0,0.0,0.0,0.0,0.0,0.0,2.01639987812,0.0,0.0,0.0,0.0,0.0,0.0,99999.0,0.0,0.0,0.0,0.0,0.0,0.0,99999.0,0.0,0.0,0.0,0.0,0.0,0.0,99999.0,0.0,0.02,-0.03,0.0,0.0,0.0,-1.0,0.0,0.0,0.0,0.0,0.0,0.0,0.0,0.0,0.0,0.0,0.0,0.0,0.0,0.0,0.0,0.0,0.0,0.0,0.0,0.0,0.0,0.0,0.0,0.0,0.0,0.0,0.0,0.0,0.0,0.0,0.0,0.0,0.0,0.0,0.0
1574069809151386774,141,1574069809150923494,map,base_link,7.66335749811,-1.96564837647,0.542,-0.00663398689846,0.0121879423922,-0.149507138633,-0.988663269155,0.722500040531,0.0,0.0,0.0,0.0,0.0,0.0,0.722500040531,0.0,0.0,0.0,0.0,0.0,0.0,2.01639987812,0.0,0.0,0.0,0.0,0.0,0.0,99999.0,0.0,0.0,0.0,0.0,0.0,0.0,99999.0,0.0,0.0,0.0,0.0,0.0,0.0,99999.0,0.03,0.01,-0.05,0.0,0.0,0.0,-1.0,0.0,0.0,0.0,0.0,0.0,0.0,0.0,0.0,0.0,0.0,0.0,0.0,0.0,0.0,0.0,0.0,0.0,0.0,0.0,0.0,0.0,0.0,0.0,0.0,0.0,0.0,0.0,0.0,0.0,0.0,0.0,0.0,0.0,0.0,0.0
1574069809431739151,142,1574069809431444068,map,base_link,7.75681314743,-2.01006980699,0.562,-0.00684176884398,0.0258494117212,-0.170589705732,-0.98497926395,0.722500040531,0.0,0.0,0.0,0.0,0.0,0.0,0.722500040531,0.0,0.0,0.0,0.0,0.0,0.0,2.01639987812,0.0,0.0,0.0,0.0,0.0,0.0,99999.0,0.0,0.0,0.0,0.0,0.0,0.0,99999.0,0.0,0.0,0.0,0.0,0.0,0.0,99999.0,0.05,-0.01,-0.02,0.0,0.0,0.0,-1.0,0.0,0.0,0.0,0.0,0.0,0.0,0.0,0.0,0.0,0.0,0.0,0.0,0.0,0.0,0.0,0.0,0.0,0.0,0.0,0.0,0.0,0.0,0.0,0.0,0.0,0.0,0.0,0.0,0.0,0.0,0.0,0.0,0.0,0.0,0.0
1574069809712167926,143,1574069809711718626,map,base_link,7.76530923689,-2.11001822699,0.585,-0.0100569261726,0.0310829873938,-0.180569227845,-0.983019562413,0.722500040531,0.0,0.0,0.0,0.0,0.0,0.0,0.722500040531,0.0,0.0,0.0,0.0,0.0,0.0,2.01639987812,0.0,0.0,0.0,0.0,0.0,0.0,99999.0,0.0,0.0,0.0,0.0,0.0,0.0,99999.0,0.0,0.0,0.0,0.0,0.0,0.0,99999.0,0.0,-0.03,-0.01,0.0,0.0,0.0,-1.0,0.0,0.0,0.0,0.0,0.0,0.0,0.0,0.0,0.0,0.0,0.0,0.0,0.0,0.0,0.0,0.0,0.0,0.0,0.0,0.0,0.0,0.0,0.0,0.0,0.0,0.0,0.0,0.0,0.0,0.0,0.0,0.0,0.0,0.0,0.0
1574069809972092925,144,1574069809971806444,map,base_link,7.7738052339,-2.13222898146,0.592,-0.0146341874351,0.0317435772785,-0.175316134059,-0.983891477247,0.722500040531,0.0,0.0,0.0,0.0,0.0,0.0,0.722500040531,0.0,0.0,0.0,0.0,0.0,0.0,2.01639987812,0.0,0.0,0.0,0.0,0.0,0.0,99999.0,0.0,0.0,0.0,0.0,0.0,0.0,99999.0,0.0,0.0,0.0,0.0,0.0,0.0,99999.0,-0.01,-0.04,0.0,0.0,0.0,0.0,-1.0,0.0,0.0,0.0,0.0,0.0,0.0,0.0,0.0,0.0,0.0,0.0,0.0,0.0,0.0,0.0,0.0,0.0,0.0,0.0,0.0,0.0,0.0,0.0,0.0,0.0,0.0,0.0,0.0,0.0,0.0,0.0,0.0,0.0,0.0,0.0
1574069810275511836,145,1574069810275014752,map,base_link,7.86726072301,-2.04338584341,0.596,-0.0145315461435,0.0368866660026,-0.174914669113,-0.983785071328,0.722500040531,0.0,0.0,0.0,0.0,0.0,0.0,0.722500040531,0.0,0.0,0.0,0.0,0.0,0.0,2.01639987812,0.0,0.0,0.0,0.0,0.0,0.0,99999.0,0.0,0.0,0.0,0.0,0.0,0.0,99999.0,0.0,0.0,0.0,0.0,0.0,0.0,99999.0,0.01,0.0,0.04,0.0,0.0,0.0,-1.0,0.0,0.0,0.0,0.0,0.0,0.0,0.0,0.0,0.0,0.0,0.0,0.0,0.0,0.0,0.0,0.0,0.0,0.0,0.0,0.0,0.0,0.0,0.0,0.0,0.0,0.0,0.0,0.0,0.0,0.0,0.0,0.0,0.0,0.0,0.0
1574069810585535505,146,1574069810584994757,map,base_link,8.00319606691,-1.98785880055,0.606,-0.014220742593,0.0385663264167,-0.159592257562,-0.986326883073,0.722500040531,0.0,0.0,0.0,0.0,0.0,0.0,0.722500040531,0.0,0.0,0.0,0.0,0.0,0.0,2.01639987812,0.0,0.0,0.0,0.0,0.0,0.0,99999.0,0.0,0.0,0.0,0.0,0.0,0.0,99999.0,0.0,0.0,0.0,0.0,0.0,0.0,99999.0,0.06,0.01,0.01,0.0,0.0,0.0,-1.0,0.0,0.0,0.0,0.0,0.0,0.0,0.0,0.0,0.0,0.0,0.0,0.0,0.0,0.0,0.0,0.0,0.0,0.0,0.0,0.0,0.0,0.0,0.0,0.0,0.0,0.0,0.0,0.0,0.0,0.0,0.0,0.0,0.0,0.0,0.0
1574069810844770723,147,1574069810844444559,map,base_link,8.10514759785,-1.96564793458,0.612,-0.0138986922484,0.0363527403308,-0.160011607019,-0.986347601124,0.722500040531,0.0,0.0,0.0,0.0,0.0,0.0,0.722500040531,0.0,0.0,0.0,0.0,0.0,0.0,2.01639987812,0.0,0.0,0.0,0.0,0.0,0.0,99999.0,0.0,0.0,0.0,0.0,0.0,0.0,99999.0,0.0,0.0,0.0,0.0,0.0,0.0,99999.0,0.06,0.03,0.06,0.0,0.0,0.0,-1.0,0.0,0.0,0.0,0.0,0.0,0.0,0.0,0.0,0.0,0.0,0.0,0.0,0.0,0.0,0.0,0.0,0.0,0.0,0.0,0.0,0.0,0.0,0.0,0.0,0.0,0.0,0.0,0.0,0.0,0.0,0.0,0.0,0.0,0.0,0.0
1574069811159523476,148,1574069811159034458,map,base_link,8.22409104013,-1.93233166799,0.62,-0.0142562330079,0.0425979633556,-0.173919241051,-0.983734858044,0.722500040531,0.0,0.0,0.0,0.0,0.0,0.0,0.722500040531,0.0,0.0,0.0,0.0,0.0,0.0,2.01639987812,0.0,0.0,0.0,0.0,0.0,0.0,99999.0,0.0,0.0,0.0,0.0,0.0,0.0,99999.0,0.0,0.0,0.0,0.0,0.0,0.0,99999.0,0.1,0.06,0.05,0.0,0.0,0.0,-1.0,0.0,0.0,0.0,0.0,0.0,0.0,0.0,0.0,0.0,0.0,0.0,0.0,0.0,0.0,0.0,0.0,0.0,0.0,0.0,0.0,0.0,0.0,0.0,0.0,0.0,0.0,0.0,0.0,0.0,0.0,0.0,0.0,0.0,0.0,0.0
1574069811432966686,149,1574069811432780007,map,base_link,8.36002641898,-1.8879100065,0.655,-0.0126668601638,0.0346045868953,-0.190720482005,-0.980952481501,0.722500040531,0.0,0.0,0.0,0.0,0.0,0.0,0.722500040531,0.0,0.0,0.0,0.0,0.0,0.0,2.01639987812,0.0,0.0,0.0,0.0,0.0,0.0,99999.0,0.0,0.0,0.0,0.0,0.0,0.0,99999.0,0.0,0.0,0.0,0.0,0.0,0.0,99999.0,0.14,0.05,0.02,0.0,0.0,0.0,-1.0,0.0,0.0,0.0,0.0,0.0,0.0,0.0,0.0,0.0,0.0,0.0,0.0,0.0,0.0,0.0,0.0,0.0,0.0,0.0,0.0,0.0,0.0,0.0,0.0,0.0,0.0,0.0,0.0,0.0,0.0,0.0,0.0,0.0,0.0,0.0
1574069811670478004,150,1574069811670008001,map,base_link,8.44498606499,-1.86569916187,0.695,-0.0149811008729,0.0251458070382,-0.195751427894,-0.980216625794,0.722500040531,0.0,0.0,0.0,0.0,0.0,0.0,0.722500040531,0.0,0.0,0.0,0.0,0.0,0.0,2.01639987812,0.0,0.0,0.0,0.0,0.0,0.0,99999.0,0.0,0.0,0.0,0.0,0.0,0.0,99999.0,0.0,0.0,0.0,0.0,0.0,0.0,99999.0,0.15,0.06,0.0,0.0,0.0,0.0,-1.0,0.0,0.0,0.0,0.0,0.0,0.0,0.0,0.0,0.0,0.0,0.0,0.0,0.0,0.0,0.0,0.0,0.0,0.0,0.0,0.0,0.0,0.0,0.0,0.0,0.0,0.0,0.0,0.0,0.0,0.0,0.0,0.0,0.0,0.0,0.0
1574069811965702460,151,1574069811965365992,map,base_link,8.47047391826,-1.75464534876,0.761,-0.013131670821,0.0177979686856,-0.193617993517,-0.980827642412,0.722500040531,0.0,0.0,0.0,0.0,0.0,0.0,0.722500040531,0.0,0.0,0.0,0.0,0.0,0.0,2.01639987812,0.0,0.0,0.0,0.0,0.0,0.0,99999.0,0.0,0.0,0.0,0.0,0.0,0.0,99999.0,0.0,0.0,0.0,0.0,0.0,0.0,99999.0,0.14,0.11,-0.08,0.0,0.0,0.0,-1.0,0.0,0.0,0.0,0.0,0.0,0.0,0.0,0.0,0.0,0.0,0.0,0.0,0.0,0.0,0.0,0.0,0.0,0.0,0.0,0.0,0.0,0.0,0.0,0.0,0.0,0.0,0.0,0.0,0.0,0.0,0.0,0.0,0.0,0.0,0.0
1574069812246928743,152,1574069812246427316,map,base_link,8.47047389844,-1.65469694191,0.834,-0.00812753412629,0.00265540249957,-0.195413588385,-0.980683650063,0.722500040531,0.0,0.0,0.0,0.0,0.0,0.0,0.722500040531,0.0,0.0,0.0,0.0,0.0,0.0,2.01639987812,0.0,0.0,0.0,0.0,0.0,0.0,99999.0,0.0,0.0,0.0,0.0,0.0,0.0,99999.0,0.0,0.0,0.0,0.0,0.0,0.0,99999.0,0.11,0.14,-0.09,0.0,0.0,0.0,-1.0,0.0,0.0,0.0,0.0,0.0,0.0,0.0,0.0,0.0,0.0,0.0,0.0,0.0,0.0,0.0,0.0,0.0,0.0,0.0,0.0,0.0,0.0,0.0,0.0,0.0,0.0,0.0,0.0,0.0,0.0,0.0,0.0,0.0,0.0,0.0
1574069812535962271,153,1574069812535666572,map,base_link,8.46197796771,-1.58806468845,0.919,-0.00300778145486,-0.014804584543,-0.199403376639,-0.979801036391,0.722500040531,0.0,0.0,0.0,0.0,0.0,0.0,0.722500040531,0.0,0.0,0.0,0.0,0.0,0.0,2.01639987812,0.0,0.0,0.0,0.0,0.0,0.0,99999.0,0.0,0.0,0.0,0.0,0.0,0.0,99999.0,0.0,0.0,0.0,0.0,0.0,0.0,99999.0,0.07,0.15,-0.11,0.0,0.0,0.0,-1.0,0.0,0.0,0.0,0.0,0.0,0.0,0.0,0.0,0.0,0.0,0.0,0.0,0.0,0.0,0.0,0.0,0.0,0.0,0.0,0.0,0.0,0.0,0.0,0.0,0.0,0.0,0.0,0.0,0.0,0.0,0.0,0.0,0.0,0.0,0.0
1574069812807963260,154,1574069812807612219,map,base_link,8.41100234016,-1.61027552978,1.009,0.002050097347,-0.011277202344,-0.205084214257,-0.978677212809,0.722500040531,0.0,0.0,0.0,0.0,0.0,0.0,0.722500040531,0.0,0.0,0.0,0.0,0.0,0.0,2.01639987812,0.0,0.0,0.0,0.0,0.0,0.0,99999.0,0.0,0.0,0.0,0.0,0.0,0.0,99999.0,0.0,0.0,0.0,0.0,0.0,0.0,99999.0,0.01,0.11,-0.09,0.0,0.0,0.0,-1.0,0.0,0.0,0.0,0.0,0.0,0.0,0.0,0.0,0.0,0.0,0.0,0.0,0.0,0.0,0.0,0.0,0.0,0.0,0.0,0.0,0.0,0.0,0.0,0.0,0.0,0.0,0.0,0.0,0.0,0.0,0.0,0.0,0.0,0.0,0.0
1574069813092116891,155,1574069813091715225,map,base_link,8.38551458475,-1.62138096236,1.096,0.00348776286888,-0.0124084341498,-0.204319669974,-0.978819359603,0.722500040531,0.0,0.0,0.0,0.0,0.0,0.0,0.722500040531,0.0,0.0,0.0,0.0,0.0,0.0,2.01639987812,0.0,0.0,0.0,0.0,0.0,0.0,99999.0,0.0,0.0,0.0,0.0,0.0,0.0,99999.0,0.0,0.0,0.0,0.0,0.0,0.0,99999.0,-0.02,0.09,-0.11,0.0,0.0,0.0,-1.0,0.0,0.0,0.0,0.0,0.0,0.0,0.0,0.0,0.0,0.0,0.0,0.0,0.0,0.0,0.0,0.0,0.0,0.0,0.0,0.0,0.0,0.0,0.0,0.0,0.0,0.0,0.0,0.0,0.0,0.0,0.0,0.0,0.0,0.0,0.0
1574069813408309428,156,1574069813407950368,map,base_link,8.38551469123,-1.59917022591,1.194,0.0203650120104,-0.0224120111557,-0.196632048949,-0.980009594528,0.722500040531,0.0,0.0,0.0,0.0,0.0,0.0,0.722500040531,0.0,0.0,0.0,0.0,0.0,0.0,2.01639987812,0.0,0.0,0.0,0.0,0.0,0.0,99999.0,0.0,0.0,0.0,0.0,0.0,0.0,99999.0,0.0,0.0,0.0,0.0,0.0,0.0,99999.0,-0.03,0.07,-0.15,0.0,0.0,0.0,-1.0,0.0,0.0,0.0,0.0,0.0,0.0,0.0,0.0,0.0,0.0,0.0,0.0,0.0,0.0,0.0,0.0,0.0,0.0,0.0,0.0,0.0,0.0,0.0,0.0,0.0,0.0,0.0,0.0,0.0,0.0,0.0,0.0,0.0,0.0,0.0
1574069813739425202,157,1574069813738986609,map,base_link,8.50445824421,-1.56585397045,1.28,0.0160675815809,0.00292289438568,-0.206373818014,-0.978336923942,0.722500040531,0.0,0.0,0.0,0.0,0.0,0.0,0.722500040531,0.0,0.0,0.0,0.0,0.0,0.0,2.01639987812,0.0,0.0,0.0,0.0,0.0,0.0,99999.0,0.0,0.0,0.0,0.0,0.0,0.0,99999.0,0.0,0.0,0.0,0.0,0.0,0.0,99999.0,0.05,0.07,-0.07,0.0,0.0,0.0,-1.0,0.0,0.0,0.0,0.0,0.0,0.0,0.0,0.0,0.0,0.0,0.0,0.0,0.0,0.0,0.0,0.0,0.0,0.0,0.0,0.0,0.0,0.0,0.0,0.0,0.0,0.0,0.0,0.0,0.0,0.0,0.0,0.0,0.0,0.0,0.0
1574069813990434544,158,1574069813990233014,map,base_link,8.63189770776,-1.5325376928,1.33,0.0294254576876,0.00760221688974,-0.197891757225,-0.979752622431,0.722500040531,0.0,0.0,0.0,0.0,0.0,0.0,0.722500040531,0.0,0.0,0.0,0.0,0.0,0.0,2.01639987812,0.0,0.0,0.0,0.0,0.0,0.0,99999.0,0.0,0.0,0.0,0.0,0.0,0.0,99999.0,0.0,0.0,0.0,0.0,0.0,0.0,99999.0,0.03,0.06,-0.03,0.0,0.0,0.0,-1.0,0.0,0.0,0.0,0.0,0.0,0.0,0.0,0.0,0.0,0.0,0.0,0.0,0.0,0.0,0.0,0.0,0.0,0.0,0.0,0.0,0.0,0.0,0.0,0.0,0.0,0.0,0.0,0.0,0.0,0.0,0.0,0.0,0.0,0.0,0.0
1574069814252744323,159,1574069814252295488,map,base_link,8.75933717216,-1.49922141281,1.381,0.0294254576876,0.00760221688974,-0.197891757225,-0.979752622431,0.722500040531,0.0,0.0,0.0,0.0,0.0,0.0,0.722500040531,0.0,0.0,0.0,0.0,0.0,0.0,2.01639987812,0.0,0.0,0.0,0.0,0.0,0.0,99999.0,0.0,0.0,0.0,0.0,0.0,0.0,99999.0,0.0,0.0,0.0,0.0,0.0,0.0,99999.0,-0.01,0.06,-0.13,0.0,0.0,0.0,-1.0,0.0,0.0,0.0,0.0,0.0,0.0,0.0,0.0,0.0,0.0,0.0,0.0,0.0,0.0,0.0,0.0,0.0,0.0,0.0,0.0,0.0,0.0,0.0,0.0,0.0,0.0,0.0,0.0,0.0,0.0,0.0,0.0,0.0,0.0,0.0
1574069814531439271,160,1574069814531168904,map,base_link,8.8612887911,-1.47701054559,1.456,0.0333627941662,-0.01681226374,-0.183327228819,-0.982341793332,0.722500040531,0.0,0.0,0.0,0.0,0.0,0.0,0.722500040531,0.0,0.0,0.0,0.0,0.0,0.0,2.01639987812,0.0,0.0,0.0,0.0,0.0,0.0,99999.0,0.0,0.0,0.0,0.0,0.0,0.0,99999.0,0.0,0.0,0.0,0.0,0.0,0.0,99999.0,0.0,0.04,-0.05,0.0,0.0,0.0,-1.0,0.0,0.0,0.0,0.0,0.0,0.0,0.0,0.0,0.0,0.0,0.0,0.0,0.0,0.0,0.0,0.0,0.0,0.0,0.0,0.0,0.0,0.0,0.0,0.0,0.0,0.0,0.0,0.0,0.0,0.0,0.0,0.0,0.0,0.0,0.0
1574069814843940034,161,1574069814843627153,map,base_link,8.87828079937,-1.47701053953,1.514,0.0200849681712,-0.0171227279767,-0.176941698549,-0.983867390228,0.792099974537,0.0,0.0,0.0,0.0,0.0,0.0,0.792099974537,0.0,0.0,0.0,0.0,0.0,0.0,2.49640013561,0.0,0.0,0.0,0.0,0.0,0.0,99999.0,0.0,0.0,0.0,0.0,0.0,0.0,99999.0,0.0,0.0,0.0,0.0,0.0,0.0,99999.0,0.04,0.07,0.0,0.0,0.0,0.0,-1.0,0.0,0.0,0.0,0.0,0.0,0.0,0.0,0.0,0.0,0.0,0.0,0.0,0.0,0.0,0.0,0.0,0.0,0.0,0.0,0.0,0.0,0.0,0.0,0.0,0.0,0.0,0.0,0.0,0.0,0.0,0.0,0.0,0.0,0.0,0.0
1574069815092716475,162,1574069815092423391,map,base_link,8.88677680437,-1.46590515693,1.552,0.00162205822928,-0.0488724073163,-0.170677755376,-0.984112778369,0.792099974537,0.0,0.0,0.0,0.0,0.0,0.0,0.792099974537,0.0,0.0,0.0,0.0,0.0,0.0,2.49640013561,0.0,0.0,0.0,0.0,0.0,0.0,99999.0,0.0,0.0,0.0,0.0,0.0,0.0,99999.0,0.0,0.0,0.0,0.0,0.0,0.0,99999.0,0.03,0.05,-0.02,0.0,0.0,0.0,-1.0,0.0,0.0,0.0,0.0,0.0,0.0,0.0,0.0,0.0,0.0,0.0,0.0,0.0,0.0,0.0,0.0,0.0,0.0,0.0,0.0,0.0,0.0,0.0,0.0,0.0,0.0,0.0,0.0,0.0,0.0,0.0,0.0,0.0,0.0,0.0
1574069815353078814,163,1574069815352625274,map,base_link,8.89527283658,-1.4659051589,1.603,0.0139621130015,-0.03564318473,-0.152139969513,-0.98761736136,0.722500040531,0.0,0.0,0.0,0.0,0.0,0.0,0.722500040531,0.0,0.0,0.0,0.0,0.0,0.0,2.01639987812,0.0,0.0,0.0,0.0,0.0,0.0,99999.0,0.0,0.0,0.0,0.0,0.0,0.0,99999.0,0.0,0.0,0.0,0.0,0.0,0.0,99999.0,0.0,0.04,-0.05,0.0,0.0,0.0,-1.0,0.0,0.0,0.0,0.0,0.0,0.0,0.0,0.0,0.0,0.0,0.0,0.0,0.0,0.0,0.0,0.0,0.0,0.0,0.0,0.0,0.0,0.0,0.0,0.0,0.0,0.0,0.0,0.0,0.0,0.0,0.0,0.0,0.0,0.0,0.0
